Identifiant de l'équipement,Equipement,Code thème,Thème,Code catégorie,Catégorie,Code type,Type,Statut,Commune,Adresse,Téléphone,Web,Code postal,latitude,longitude
1061,Plaine de Jeux Grand Blottereau,6,SPORT ET LOISIRS,601,Salle et terrain de sport,60117,Terrain de grands jeux,Ville de Nantes,NANTES,Boulevard Auguste Péneau,,,44300,47.2254406712,-1.50964696949
112,Piscine Dervallières - Nantes,6,SPORT ET LOISIRS,601,Salle et terrain de sport,60112,Piscine,Ville de Nantes,NANTES,21 Rue Professeur Dubuisson,,,44100,47.2275397158,-1.59218618843
1831,Gymnase Le Hérault,6,SPORT ET LOISIRS,601,Salle et terrain de sport,60109,Gymnase,Public,ST-HERBLAIN,Avenue Alain Gerbault,,,44800,47.2350579491,-1.59992583114
1843,Centre Sportif du Vigneau,6,SPORT ET LOISIRS,601,Salle et terrain de sport,,,Public,ST-HERBLAIN,Boulevard Salvador Allende,,,44800,47.2179570956,-1.62222094646
2039,Gymnase Savarières,6,SPORT ET LOISIRS,601,Salle et terrain de sport,60109,Gymnase,Public,ST-SEBASTIEN,Avenue de Glinde,,,44230,47.2094370357,-1.48756396053
2153,Practice de golf,6,SPORT ET LOISIRS,601,Salle et terrain de sport,60108,Golf,Public,ST-SEBASTIEN,Boulevard des Pas Enchantés,,,44230,47.213172137,-1.49257395944
2156,Stade Maurice Thollé,6,SPORT ET LOISIRS,601,Salle et terrain de sport,60115,Stade,Public,ST-SEBASTIEN,Boulevard des Pas Enchantés,,,44230,47.2112714757,-1.50375233134
2202,Stade de Beauvoir,6,SPORT ET LOISIRS,601,Salle et terrain de sport,60115,Stade,Public,BOUGUENAIS,Chemin du Halage,,,44340,47.1813384636,-1.63094056661
2434,Piscine Daniel Gilard - Carquefou,6,SPORT ET LOISIRS,601,Salle et terrain de sport,60112,Piscine,Public,CARQUEFOU,10 Rue Pierre Mendes France,,,44470,47.3024911791,-1.49260361891
2444,Centre Sportif Paul Langevin,6,SPORT ET LOISIRS,601,Salle et terrain de sport,,,Non renseigné,COUERON,Boulevard Paul Langevin,,,44220,47.2145172786,-1.72112927217
2528,Stade de football municipal La Montagne,6,SPORT ET LOISIRS,601,Salle et terrain de sport,60115,Stade,Non renseigné,LA-MONTAGNE,Allée du Château d'Aux,,,44620,47.1827452591,-1.67456709905
2540,Ensemble sportif René Gautier,6,SPORT ET LOISIRS,601,Salle et terrain de sport,,,Non renseigné,BOUAYE,Esplanade de l'Edit de Nantes,,,44830,47.1551489028,-1.68226632997
2571,Stade Vincent et Robert Girard,6,SPORT ET LOISIRS,601,Salle et terrain de sport,60115,Stade,Privé,VERTOU,Rue de la Maladrie,,,44120,47.1847635195,-1.49234524012
2653,Complexe Sportif de La Robinière,6,SPORT ET LOISIRS,601,Salle et terrain de sport,60117,Terrain de grands jeux,Public,REZE,Rue des Poyaux,,,44400,47.1636639452,-1.53122004041
2659,Gymnase Lucien Cavalin,6,SPORT ET LOISIRS,601,Salle et terrain de sport,60109,Gymnase,Non renseigné,REZE,Rue des Frères Lumière,,,44400,47.1805107966,-1.55943409617
2666,Gymnase Ouche Dinier,6,SPORT ET LOISIRS,601,Salle et terrain de sport,60109,Gymnase,Non renseigné,REZE,Rue du Parc Ferrand,,,44400,47.1762262911,-1.53696348765
2667,Gymnase Yvonne et Alexandre Plancher,6,SPORT ET LOISIRS,601,Salle et terrain de sport,60109,Gymnase,Non renseigné,REZE,Rue Camille Jouis,,,44400,47.1900397404,-1.57064523481
2676,Halle des sports,6,SPORT ET LOISIRS,601,Salle et terrain de sport,60109,Gymnase,Non renseigné,VERTOU,Allée de la Vigne de Pâques,,,44120,47.1632873123,-1.46722162766
29,Gymnase Gravaud,6,SPORT ET LOISIRS,601,Salle et terrain de sport,60109,Gymnase,Ville de Nantes,,,,,44100,47.2038636267,-1.57752952596
30,Complexe Sportif Mangin Beaulieu,6,SPORT ET LOISIRS,601,Salle et terrain de sport,60113,Salle omnisports,Ville de Nantes,NANTES,Rue des Boires,,,44200,47.2048690296,-1.54281140277
3120,Mini Auto Club Nantais,6,SPORT ET LOISIRS,601,Salle et terrain de sport,,,Ville de Nantes,LA-CHAPELLE-SUR-ERDRE,Route de la Jonelière,,,44240,47.2576560052,-1.54281104793
3298,Plateau sportif du Fougan-de-Mer,6,SPORT ET LOISIRS,601,Salle et terrain de sport,60115,Stade,Public,BOUGUENAIS,Rue du Commandant Charcot,,,44340,47.1832208376,-1.5795392589
3314,Stade Pierre de Coubertin,6,SPORT ET LOISIRS,601,Salle et terrain de sport,60115,Stade,Public,BOUGUENAIS,Chemin de la Neustrie,,,44340,47.174988472,-1.5918103872
3374,Complexe Sportif du Tremplin,6,SPORT ET LOISIRS,601,Salle et terrain de sport,60109,Gymnase,Public,CARQUEFOU,Rue Victor Hugo,,,44470,47.2816599531,-1.48197781802
3406,Piste d'athlétisme,6,SPORT ET LOISIRS,601,Salle et terrain de sport,60115,Stade,Non renseigné,BOUAYE,Esplanade de l'Edit de Nantes,,,44830,47.1543009725,-1.68227256634
3444,Piscine Roger Picaud - Orvault,6,SPORT ET LOISIRS,601,Salle et terrain de sport,60112,Piscine,Non renseigné,ORVAULT,108B Avenue Claude Antoine Peccot,,,44700,47.2511249183,-1.6101213502
3482,Plaine de Jeux de la Rive,6,SPORT ET LOISIRS,601,Salle et terrain de sport,60117,Terrain de grands jeux,Non renseigné,SAINT-LEGER-LES-VIGNES,Rue de la Rive,,,44710,47.1334304976,-1.73297467759
3495,Gymnase Jules Léauté,6,SPORT ET LOISIRS,601,Salle et terrain de sport,60109,Gymnase,Non renseigné,LES-SORINIERES,Rue Hippolyte Derouet,,,44840,47.1475885965,-1.5250526015
3918,Boulodrome du Breil,6,SPORT ET LOISIRS,601,Salle et terrain de sport,60103,Boulodrome,Ville de Nantes,NANTES,Rue de Malville,,,44100,47.231420092,-1.58148771789
3941,Terrain multi-sports square Augustin Fresnel,6,SPORT ET LOISIRS,602,Pratique libre,60201,Terrain multi-sports,Ville de Nantes,NANTES,Rue Augustin Fresnel,,,44300,47.2426956456,-1.52266566674
3943,Salle de Boxe Bottière Nantes Est,6,SPORT ET LOISIRS,601,Salle et terrain de sport,60106,Combats ? Arts martiaux,Ville de Nantes,NANTES,83 Rue Félix Ménétrier,,,44300,47.2406744964,-1.52102581548
4152,Espace Multisport Sensive,6,SPORT ET LOISIRS,601,Salle et terrain de sport,60117,Terrain de grands jeux,Municipal,ST-HERBLAIN,21 Rue de Bordeaux,,,44800,47.2104096584,-1.61158810199
4166,Court de Tennis,6,SPORT ET LOISIRS,601,Salle et terrain de sport,60116,Tennis,Non renseigné,INDRE,Rue de la Gare,,,44610,47.2009617632,-1.6687579675
4176,Karaté,6,SPORT ET LOISIRS,601,Salle et terrain de sport,60106,Combats ? Arts martiaux,Non renseigné,LES-SORINIERES,Rue des Papillons,,,44840,47.1480518341,-1.52263460118
4188,Centre équestre de la Meilleraie et écurie TEAM GM,6,SPORT ET LOISIRS,601,Salle et terrain de sport,60105,Centre équestre,Non renseigné,LES-SORINIERES,Rue de la Poste,,,44840,47.1448969479,-1.54402354053
4216,Salle de Tennis du Guette Loup,6,SPORT ET LOISIRS,601,Salle et terrain de sport,60116,Tennis,Public,THOUARE-SUR-LOIRE,Route de la Barre,,,44470,47.2625548895,-1.45519992129
4223,Dojo Goulainais,6,SPORT ET LOISIRS,601,Salle et terrain de sport,60106,Combats ? Arts martiaux,Public,BASSE-GOULAINE,Rue de la Poste,,,44115,47.2167943079,-1.46748951712
4247,Entente Tennis Vertou,6,SPORT ET LOISIRS,601,Salle et terrain de sport,60116,Tennis,Non renseigné,VERTOU,Impasse de la Foresterie,,,44120,47.1785373258,-1.46318254601
4263,Terrains de tennis,6,SPORT ET LOISIRS,601,Salle et terrain de sport,60116,Tennis,Non renseigné,SAUTRON,Rue de la Forêt,,,44880,47.2665123106,-1.67841906449
4265,Skatepark - Sautron,6,SPORT ET LOISIRS,602,Pratique libre,60202,Skatepark,Municipal,SAUTRON,Rue de la Forêt,,,44880,47.2662524327,-1.67980908887
4285,Boulodrome,6,SPORT ET LOISIRS,601,Salle et terrain de sport,60103,Boulodrome,Non renseigné,COUERON,Rue de la Noë Allais,,,44220,47.2193163,-1.68393059931
4286,Tennis,6,SPORT ET LOISIRS,601,Salle et terrain de sport,60116,Tennis,Non renseigné,COUERON,Rue Marcel de la Provoté,,,44220,47.2117152623,-1.7381354776
4291,Complexe Sportif Eersel,6,SPORT ET LOISIRS,601,Salle et terrain de sport,60109,Gymnase,Public,CARQUEFOU,Rue du Moulin Boisseau,,,44470,47.2855739086,-1.48300050737
4293,Pétanque,6,SPORT ET LOISIRS,601,Salle et terrain de sport,60103,Boulodrome,Public,CARQUEFOU,Rue Victor Hugo,,,44470,47.2823672853,-1.48134952976
4334,Boulodrome,6,SPORT ET LOISIRS,601,Salle et terrain de sport,60103,Boulodrome,Non renseigné,ORVAULT,Chemin des Garettes,,,44700,47.2743461522,-1.62505308524
4335,Tennis Frébaudière,6,SPORT ET LOISIRS,601,Salle et terrain de sport,60116,Tennis,Non renseigné,ORVAULT,Chemin des Garettes,,,44700,47.2744022428,-1.62560460731
4336,Skatepark - Orvault,6,SPORT ET LOISIRS,602,Pratique libre,60202,Skatepark,Municipal,ORVAULT,Chemin des Garettes,,,44700,47.2744176891,-1.62611738413
4379,Salles Duruy et Petipa,6,SPORT ET LOISIRS,601,Salle et terrain de sport,,,Public,BOUGUENAIS,Square Pablo Neruda,,,44340,47.1710656965,-1.62176825508
4384,Terrain de boules de Beauvoir,6,SPORT ET LOISIRS,601,Salle et terrain de sport,60103,Boulodrome,Public,BOUGUENAIS,Rue de Beauvoir,,,44340,47.179111398,-1.62643250738
4393,Espace René Cassin - salle Gilles de la Bourdonnaye,6,SPORT ET LOISIRS,601,Salle et terrain de sport,60109,Gymnase,Non renseigné,LE-PELLERIN,Rue de la Jouardais,,,44640,47.1942539102,-1.76211030583
4395,Terrain de basket,6,SPORT ET LOISIRS,602,Pratique libre,60201,Terrain multi-sports,Non renseigné,LE-PELLERIN,Rue de la Jouardais,,,44640,47.1959542275,-1.7584786502
4471,Terrain multi-sports,6,SPORT ET LOISIRS,602,Pratique libre,60201,Terrain multi-sports,Public,ST-SEBASTIEN,Boulevard des Pas Enchantés,,,44230,47.2103948952,-1.51306869121
4495,Tennis,6,SPORT ET LOISIRS,601,Salle et terrain de sport,60116,Tennis,Ville de Nantes,NANTES,Rue Louis Delluc,,,44100,47.2301054929,-1.58103297529
4539,Terrain multi-sports de Hongrie,6,SPORT ET LOISIRS,602,Pratique libre,60201,Terrain multi-sports,Ville de Nantes,NANTES,Rue de Hongrie,,,44000,47.2170918721,-1.52393174761
46,Gymnase des Marsauderies,6,SPORT ET LOISIRS,601,Salle et terrain de sport,60109,Gymnase,Ville de Nantes,,,,,44300,47.2425205915,-1.52946788962
4942,Plateau multi-sports Ragon,6,SPORT ET LOISIRS,602,Pratique libre,60201,Terrain multi-sports,Non renseigné,REZE,Rue du Vivier,,,44400,47.1654416137,-1.54171073091
4949,Dojo des Echalonnières,6,SPORT ET LOISIRS,601,Salle et terrain de sport,60106,Combats ? Arts martiaux,Non renseigné,VERTOU,Boulevard Luc Dejoie,,,44120,47.1769649341,-1.46986491288
5009,Terrain multi-sports Square J.B. Barré,6,SPORT ET LOISIRS,602,Pratique libre,60201,Terrain multi-sports,Ville de Nantes,NANTES,15 Rue Jean Baptiste Barré,,,44000,47.2225919678,-1.52767350175
5041,Street Work Out,6,SPORT ET LOISIRS,602,Pratique libre,60201,Terrain multi-sports,Ville de Nantes,NANTES,Boulevard Georges Pompidou,,,44200,47.2094000017,-1.52723523953
5099,Aire de jeux de la Boulogne,6,SPORT ET LOISIRS,601,Salle et terrain de sport,60114,Site de loisirs,Non renseigné,ST-SEBASTIEN,Rue de la Boulogne,,,44230,47.2071063023,-1.51243791726
51,Gymnase Jamet,6,SPORT ET LOISIRS,601,Salle et terrain de sport,60109,Gymnase,Ville de Nantes,NANTES,65 Route de Saint Herblain,,,44100,47.2104278346,-1.60388253237
5101,Aire de jeux Louis Pasteur,6,SPORT ET LOISIRS,601,Salle et terrain de sport,60114,Site de loisirs,Non renseigné,ST-SEBASTIEN,Rue Louis Pasteur,,,44230,47.2054900603,-1.48461155912
5138,Aire de Jeux Ville au Denis,6,SPORT ET LOISIRS,601,Salle et terrain de sport,60114,Site de loisirs,Non renseigné,BOUGUENAIS,Allée des Soupirs,,,44340,47.1552602893,-1.62360990006
5139,Aire de Jeux Les Bauches du Désert,6,SPORT ET LOISIRS,601,Salle et terrain de sport,60114,Site de loisirs,Non renseigné,BOUGUENAIS,Rue des Bauches,,,44340,47.1593525105,-1.6448810757
5147,Aire de jeux de la Coulée Verte,6,SPORT ET LOISIRS,601,Salle et terrain de sport,60114,Site de loisirs,Non renseigné,THOUARE-SUR-LOIRE,Allée de la Coulée Verte,,,44470,47.2725121342,-1.44132091392
5149,Aire de jeux les Genêts,6,SPORT ET LOISIRS,601,Salle et terrain de sport,60114,Site de loisirs,Non renseigné,SAINT-JEAN-DE-BOISEAU,Rue des Lilas,,,44640,47.1930483489,-1.72649175786
5161,Aire de jeux,6,SPORT ET LOISIRS,601,Salle et terrain de sport,60114,Site de loisirs,Non renseigné,NANTES,Rue Félix Ménétrier,,,44300,47.2406079262,-1.5193430247
5168,Aire de jeux,6,SPORT ET LOISIRS,601,Salle et terrain de sport,60114,Site de loisirs,Non renseigné,NANTES,Rue Paul Sabatier,,,44300,47.2389191874,-1.51783192323
5173,Aire de jeux,6,SPORT ET LOISIRS,601,Salle et terrain de sport,60114,Site de loisirs,Non renseigné,NANTES,Boulevard Ernest Dalby,,,44000,47.2272557104,-1.52716796112
5178,Aire de jeux,6,SPORT ET LOISIRS,601,Salle et terrain de sport,60114,Site de loisirs,Non renseigné,NANTES,Rue du Général de Bollardière,,,44200,47.2091604461,-1.52957393739
5193,Aire de jeux,6,SPORT ET LOISIRS,601,Salle et terrain de sport,60114,Site de loisirs,Non renseigné,NANTES,Rue Gabriel Goudy,,,44200,47.1951796873,-1.54197181397
5203,Aire de jeux,6,SPORT ET LOISIRS,601,Salle et terrain de sport,60114,Site de loisirs,Non renseigné,NANTES,Rue d'Ancin,,,44000,47.2111354789,-1.56296033967
5204,Aire de jeux,6,SPORT ET LOISIRS,601,Salle et terrain de sport,60114,Site de loisirs,Non renseigné,NANTES,Place de la Monnaie,,,44000,47.2130132691,-1.56537841874
5216,Aire de jeux,6,SPORT ET LOISIRS,601,Salle et terrain de sport,60114,Site de loisirs,Non renseigné,NANTES,Rue du Jamet,,,44100,47.2082285784,-1.60554691939
5262,Aire de jeux,6,SPORT ET LOISIRS,601,Salle et terrain de sport,60114,Site de loisirs,Non renseigné,NANTES,Rue Frédéric Mistral,,,44300,47.2468049585,-1.51258662515
5274,Aire de jeux,6,SPORT ET LOISIRS,601,Salle et terrain de sport,60114,Site de loisirs,Non renseigné,NANTES,Route de Gachet,,,44300,47.2884184761,-1.52677254757
5276,Aire de jeux,6,SPORT ET LOISIRS,601,Salle et terrain de sport,60114,Site de loisirs,Non renseigné,NANTES,Route de la Chapelle Sur Erdre,,,44300,47.2627328525,-1.57662843071
5285,Aire de jeux Parc de Charbonneau,6,SPORT ET LOISIRS,601,Salle et terrain de sport,60114,Site de loisirs,Non renseigné,CARQUEFOU,Boulevard du Charbonneau,,,44470,47.3012024816,-1.49406958624
5289,Aire de jeux,6,SPORT ET LOISIRS,601,Salle et terrain de sport,60114,Site de loisirs,Non renseigné,COUERON,Quai du Commandant Lucas,,,44220,47.2092155072,-1.7294967882
5304,Aire de jeux P. Allain,6,SPORT ET LOISIRS,601,Salle et terrain de sport,60114,Site de loisirs,Non renseigné,REZE,Allée de Boulogne,,,44400,47.184038094,-1.56136162929
5307,Aire de jeux,6,SPORT ET LOISIRS,601,Salle et terrain de sport,60114,Site de loisirs,Non renseigné,ST-HERBLAIN,Allée des Etangs,,,44800,47.2497873342,-1.64004407958
5314,Aire de jeux,6,SPORT ET LOISIRS,601,Salle et terrain de sport,60114,Site de loisirs,Non renseigné,ST-HERBLAIN,Allée des Lauriers,,,44800,47.2016788803,-1.61734306433
5315,Aire de jeux,6,SPORT ET LOISIRS,601,Salle et terrain de sport,60114,Site de loisirs,Non renseigné,SAINTE-LUCE-SUR-LOIRE,Allée des Arts,,,44980,47.2468394174,-1.48519855151
56,Gymnase Jean Ogé,6,SPORT ET LOISIRS,601,Salle et terrain de sport,60109,Gymnase,Ville de Nantes,NANTES,Allée Sonia Delaunay,,,44100,47.2261929638,-1.5957376565
61,Gymnase Géraudière,6,SPORT ET LOISIRS,601,Salle et terrain de sport,60109,Gymnase,Ville de Nantes,NANTES,29 Rue Santos Dumont,,,44300,47.2613899374,-1.56758509818
692,Plaine de Jeux de la Beaujoire,6,SPORT ET LOISIRS,601,Salle et terrain de sport,60117,Terrain de grands jeux,Ville de Nantes,NANTES,Route de Saint Joseph,,,44300,47.2639930544,-1.53365379171
76,Gymnase Joêl Paon,6,SPORT ET LOISIRS,601,Salle et terrain de sport,60109,Gymnase,Ville de Nantes,NANTES,42 Rue des Hauts Pavés,,,44000,47.2243419206,-1.56398900831
84,Gymnase Leloup Bouhier,6,SPORT ET LOISIRS,601,Salle et terrain de sport,60109,Gymnase,Région,NANTES,11 Boulevard de Launay,,,44100,47.210048509,-1.57348599151
844,Piscine Jules Verne Haluchère - Nantes,6,SPORT ET LOISIRS,601,Salle et terrain de sport,60112,Piscine,Ville de Nantes,,,,,44300,47.248251332,-1.51748108855
846,Plaine de jeux Jean Jacques Audubon,6,SPORT ET LOISIRS,601,Salle et terrain de sport,60117,Terrain de grands jeux,Ville de Nantes,,,,,44300,47.240171029,-1.50438306883
848,Plaine de Jeux Jonelière,6,SPORT ET LOISIRS,601,Salle et terrain de sport,60117,Terrain de grands jeux,Non renseigné,LA-CHAPELLE-SUR-ERDRE,Route de la Jonelière,,,44240,47.2614440995,-1.54361456098
855,Plaine de Jeux Sévres,6,SPORT ET LOISIRS,601,Salle et terrain de sport,60117,Terrain de grands jeux,Ville de Nantes,NANTES,Rue de l'Olivraie,,,44200,47.1846104464,-1.53165352512
865,Cercle d'Aviron de Nantes,6,SPORT ET LOISIRS,601,Salle et terrain de sport,60101,Base nautique,Ville de Nantes,,,,,44000,47.2339812184,-1.54729366118
95,Gymnase ASPTT de Longchamp,6,SPORT ET LOISIRS,601,Salle et terrain de sport,60109,Gymnase,Privé,NANTES,Rue Chanteclerc,,,44300,47.235391342,-1.57972153053
97,Salle Saint Donatien,6,SPORT ET LOISIRS,601,Salle et terrain de sport,60109,Gymnase,Privé,NANTES,Avenue Camille Guérin,,,44000,47.2302801692,-1.54328641606
1072,Stade de la Roche,6,SPORT ET LOISIRS,601,Salle et terrain de sport,60115,Stade,Ville de Nantes,NANTES,10 Rue de la Révolution des Oeillets,,,44000,47.2192670174,-1.51974623122
111,Piscine Durantière - Nantes,6,SPORT ET LOISIRS,601,Salle et terrain de sport,60112,Piscine,Ville de Nantes,NANTES,11 Rue de la Durantière,,,44100,47.2127565726,-1.59872469161
116,Club Léo Lagrange Nantes Aviron,6,SPORT ET LOISIRS,601,Salle et terrain de sport,60101,Base nautique,Ville de Nantes,NANTES,9 Chemin de Belle Ile,,,44300,47.2457334513,-1.54388994386
1846,Piscine Bourgonnière  - St Herblain,6,SPORT ET LOISIRS,601,Salle et terrain de sport,60112,Piscine,Public,ST-HERBLAIN,34 Allée de la Bourgonnière,,,44800,47.207785243,-1.65677255965
2026,Gymnase Ouche Quinet,6,SPORT ET LOISIRS,601,Salle et terrain de sport,60109,Gymnase,Public,ST-SEBASTIEN,Rue de l'Ouche Quinet,,,44230,47.192658785,-1.49992019508
2038,Gymnase Profondine,6,SPORT ET LOISIRS,601,Salle et terrain de sport,60109,Gymnase,Public,ST-SEBASTIEN,Rue de l'Allée Verte,,,44230,47.1959306835,-1.48903298998
2087,Piscine municipale - Bouguenais,6,SPORT ET LOISIRS,601,Salle et terrain de sport,60112,Piscine,Public,BOUGUENAIS,Rue Pablo Neruda,,,44340,47.1717429611,-1.62129630601
2111,Stade Football Félix Guyot,6,SPORT ET LOISIRS,601,Salle et terrain de sport,60115,Stade,Public,INDRE,Rue du Stade,,,44610,47.2012865212,-1.67079316342
2243,Gymnase Haute-Indre,6,SPORT ET LOISIRS,601,Salle et terrain de sport,60109,Gymnase,Public,INDRE,Rue Jean-Baptiste Rabillard,,,44610,47.195129525,-1.64789932486
2252,Gymnase Basse-Indre,6,SPORT ET LOISIRS,601,Salle et terrain de sport,60109,Gymnase,Public,INDRE,7 Rue de la Gare,,,44610,47.2008208737,-1.6693128259
2299,Gymnase Gigant,6,SPORT ET LOISIRS,601,Salle et terrain de sport,60109,Gymnase,Ville de Nantes,NANTES,3 Place Beaumanoir,,,44100,47.21306974,-1.57104143299
2317,Gymnase Noë Lambert,6,SPORT ET LOISIRS,601,Salle et terrain de sport,60109,Gymnase,Ville de Nantes,NANTES,42 Boulevard des Poilus,,,44300,47.230800063,-1.52715801396
2414,Gymnase Brains,6,SPORT ET LOISIRS,601,Salle et terrain de sport,60109,Gymnase,Non renseigné,BRAINS,Rue des Prés,,,44830,47.1683199331,-1.72210656562
2536,Stade Saint Jean de Boiseau,6,SPORT ET LOISIRS,601,Salle et terrain de sport,60115,Stade,Non renseigné,SAINT-JEAN-DE-BOISEAU,Rue des Pierres Blanches,,,44640,47.1877658261,-1.71022500426
2539,Ensemble sportif de Bellestre,6,SPORT ET LOISIRS,601,Salle et terrain de sport,60115,Stade,Non renseigné,BOUAYE,Rue du Stade,,,44830,47.1496505319,-1.69458101541
2543,Salle Omnisports,6,SPORT ET LOISIRS,601,Salle et terrain de sport,60109,Gymnase,Non renseigné,SAINT-LEGER-LES-VIGNES,Rue de la Rive,,,44710,47.1340375736,-1.73260457638
2567,Piscine municipale - Vertou,6,SPORT ET LOISIRS,601,Salle et terrain de sport,60112,Piscine,Non renseigné,VERTOU,Boulevard des Sports,,,44120,47.1649088375,-1.46996118141
2581,Stade municipal,6,SPORT ET LOISIRS,601,Salle et terrain de sport,60115,Stade,Non renseigné,SAINTE-LUCE-SUR-LOIRE,Rue du Stade,,,44980,47.2536698417,-1.48139885935
2623,Centre Equestre de la Noue Verrière,6,SPORT ET LOISIRS,601,Salle et terrain de sport,60105,Centre équestre,Non renseigné,LA-CHAPELLE-SUR-ERDRE,Route de la Noue Verrière,,,44240,47.2768331378,-1.57123347078
2644,Complexe Sportif Henri Michel,6,SPORT ET LOISIRS,601,Salle et terrain de sport,60115,Stade,Public,BASSE-GOULAINE,Rue de la Poste,,,44115,47.2180632249,-1.46798857765
2665,Gymnase Julien Douillard,6,SPORT ET LOISIRS,601,Salle et terrain de sport,60109,Gymnase,Non renseigné,REZE,11 Rue Julien Douillard,,,44400,47.1858505169,-1.54307424199
2668,Gymnase Roger Salengro,6,SPORT ET LOISIRS,601,Salle et terrain de sport,60109,Gymnase,Non renseigné,REZE,Place Roger Salengro,,,44400,47.184110948,-1.54951684732
2671,Stade Sèvre et Maine,6,SPORT ET LOISIRS,601,Salle et terrain de sport,60115,Stade,Non renseigné,VERTOU,Allée de la Vigne de Pâques,,,44120,47.1638293295,-1.46555766013
3087,Gymnase Joël Dubois,6,SPORT ET LOISIRS,601,Salle et terrain de sport,60109,Gymnase,Public,BOUGUENAIS,Rue Pablo Neruda,,,44340,47.1707324589,-1.62203460711
3306,Terrain stabilisé de la Croix Jeannette,6,SPORT ET LOISIRS,601,Salle et terrain de sport,60115,Stade,Public,BOUGUENAIS,Chemin Albert Camus,,,44340,47.1711869853,-1.62049029618
3308,Terrain de tir à l'arc de la Gagnerie,6,SPORT ET LOISIRS,601,Salle et terrain de sport,60118,Tir,Public,BOUGUENAIS,Rue de la Gagnerie,,,44340,47.1703680154,-1.61804709788
3330,Salle de Tennis de Table Vertou,6,SPORT ET LOISIRS,601,Salle et terrain de sport,60116,Tennis,Non renseigné,VERTOU,Boulevard des Sports,,,44120,47.1652856297,-1.47325814992
3427,Salle de sport,6,SPORT ET LOISIRS,601,Salle et terrain de sport,60109,Gymnase,Non renseigné,,,,,44470,47.2935906268,-1.39044844872
3441,Tennis Orvault,6,SPORT ET LOISIRS,601,Salle et terrain de sport,60116,Tennis,Non renseigné,,,,,44700,47.2571645468,-1.58156439077
3442,Plateau Multisports,6,SPORT ET LOISIRS,601,Salle et terrain de sport,60115,Stade,Non renseigné,ORVAULT,22 Avenue du Petit Moulin,,,44700,47.2632318685,-1.59694049442
3443,Tennis Roger Picaud,6,SPORT ET LOISIRS,601,Salle et terrain de sport,60116,Tennis,Non renseigné,ORVAULT,112 Avenue Claude Antoine Peccot,,,44700,47.2529330507,-1.61156165138
3465,Stade Jean Bertin,6,SPORT ET LOISIRS,601,Salle et terrain de sport,60115,Stade,Non renseigné,SAINT-AIGNAN-GRANDLIEU,4 Rue des Frères Rousseau,,,44860,47.1242267685,-1.63166120722
3607,Espace Multisport Sillon,6,SPORT ET LOISIRS,601,Salle et terrain de sport,60117,Terrain de grands jeux,Non renseigné,ST-HERBLAIN,Avenue de l'Angevinière,,,44800,47.2463607409,-1.61054783703
3904,Terrain multi-sports ZAC Montplaisir,6,SPORT ET LOISIRS,602,Pratique libre,60201,Terrain multi-sports,Ville de Nantes,NANTES,Allée des Alizés,,,44100,47.1998915088,-1.60892585405
3920,Skatepark Schuman,6,SPORT ET LOISIRS,602,Pratique libre,60202,Skatepark,Ville de Nantes,NANTES,Boulevard Robert Schuman,,,44300,47.241643552,-1.57270315853
3923,Stand de Tir des Jamonières,6,SPORT ET LOISIRS,601,Salle et terrain de sport,60118,Tir,Ville de Nantes,LA-CHAPELLE-SUR-ERDRE,Route de la Jonelière,,,44240,47.2570977825,-1.54080706436
3937,Plaine de Jeux du Lycée de la Colinière,6,SPORT ET LOISIRS,601,Salle et terrain de sport,60117,Terrain de grands jeux,Région,,,,,44300,47.235416199,-1.51229825921
3944,Terrain multi-sports de la Haluchère,6,SPORT ET LOISIRS,602,Pratique libre,60201,Terrain multi-sports,Ville de Nantes,NANTES,Rue Jules Grandjouan,,,44300,47.2474595193,-1.51227991939
4180,Aire multisports,6,SPORT ET LOISIRS,601,Salle et terrain de sport,60117,Terrain de grands jeux,Non renseigné,LES-SORINIERES,Impasse de la Forge,,,44840,47.1488585938,-1.53387348448
4192,Centre aquatique So.Pool,6,SPORT ET LOISIRS,601,Salle et terrain de sport,60112,Piscine,Public,BASSE-GOULAINE,2 Rue de Tasmanie,,,44115,47.1895837217,-1.47341692543
4230,Boulodrome,6,SPORT ET LOISIRS,601,Salle et terrain de sport,60103,Boulodrome,Non renseigné,SAINT-AIGNAN-GRANDLIEU,Route du Lac,,,44860,47.1203301587,-1.6377179026
4231,Skatepark - St-Aignan,6,SPORT ET LOISIRS,602,Pratique libre,60202,Skatepark,Municipal,SAINT-AIGNAN-GRANDLIEU,Place Saint Amani,,,44860,47.1211603585,-1.63728300697
4232,Terrain de Basket,6,SPORT ET LOISIRS,602,Pratique libre,60201,Terrain multi-sports,Non renseigné,SAINT-AIGNAN-GRANDLIEU,Place Saint Amani,,,44860,47.1210002437,-1.63719842325
4245,Terrain de Tennis,6,SPORT ET LOISIRS,601,Salle et terrain de sport,60116,Tennis,Non renseigné,VERTOU,Allée de la Vigne de Pâques,,,44120,47.1639364124,-1.46673884133
4264,Terrains de pétanque,6,SPORT ET LOISIRS,601,Salle et terrain de sport,60103,Boulodrome,Non renseigné,SAUTRON,Rue de la Forêt,,,44880,47.2670126153,-1.67792361541
4337,Bike-Park,6,SPORT ET LOISIRS,601,Salle et terrain de sport,60102,Bicross,Non renseigné,ORVAULT,4 Chemin de Gagné,,,44700,47.2818757467,-1.62959730287
4338,Boulodrome,6,SPORT ET LOISIRS,601,Salle et terrain de sport,60103,Boulodrome,Non renseigné,,,,,44700,47.2540770167,-1.59839660644
4382,Skatepark - Bouguenais,6,SPORT ET LOISIRS,602,Pratique libre,60202,Skatepark,Public,BOUGUENAIS,Chemin de la Neustrie,,,44340,47.1748522463,-1.5906651779
4538,Terrain multi-sports Gustave Eiffel,6,SPORT ET LOISIRS,602,Pratique libre,60201,Terrain multi-sports,Bailleur,NANTES,Rue Gustave Eiffel,,,44300,47.25610173,-1.51933112203
4870,Skatepark - St-Sébastien,6,SPORT ET LOISIRS,602,Pratique libre,60202,Skatepark,Municipal,ST-SEBASTIEN,Square Jean Moulin,,,44230,47.207235692,-1.48711817344
4887,Anneau de Patin,6,SPORT ET LOISIRS,601,Salle et terrain de sport,60119,Vélodrome,Non renseigné,SAINT-JEAN-DE-BOISEAU,Rue des Bruyères,,,44640,47.1925774878,-1.72662265254
4941,Plateau multi-sports Square Beaumarchais,6,SPORT ET LOISIRS,602,Pratique libre,60201,Terrain multi-sports,Non renseigné,REZE,Allée Beaumarchais,,,44400,47.1844282073,-1.55814660819
4950,Skatepark du Loiry,6,SPORT ET LOISIRS,602,Pratique libre,60202,Skatepark,Municipal,VERTOU,Boulevard Guichet Sérex,,,44120,47.1634959696,-1.47675154819
50,Gymnase Jean Zay Bellevue,6,SPORT ET LOISIRS,601,Salle et terrain de sport,60109,Gymnase,Ville de Nantes,NANTES,15B Rue Yves Kartel,,,44100,47.2082910717,-1.60741125639
5010,Terrain multi-sports parc du Plessis Tison,6,SPORT ET LOISIRS,602,Pratique libre,60201,Terrain multi-sports,Ville de Nantes,NANTES,Rond-Point de Paris,,,44300,47.2341541854,-1.5360161689
5043,Halle de tennis,6,SPORT ET LOISIRS,601,Salle et terrain de sport,60116,Tennis,Public,CARQUEFOU,Rue du Moulin Boisseau,,,44470,47.2842296286,-1.48431772043
5098,Aire de jeux Jacqueline Bernier,6,SPORT ET LOISIRS,601,Salle et terrain de sport,60114,Site de loisirs,Non renseigné,ST-SEBASTIEN,Rue Jacqueline Bernier,,,44230,47.2006520102,-1.50365218421
5136,Aire de Jeux Célestin Freinet,6,SPORT ET LOISIRS,601,Salle et terrain de sport,60114,Site de loisirs,Non renseigné,BOUGUENAIS,Rue Célestin Freinet,,,44340,47.1815255603,-1.59008789299
5141,Aire de Jeux 8 Mai,6,SPORT ET LOISIRS,601,Salle et terrain de sport,60114,Site de loisirs,Non renseigné,BOUGUENAIS,Rue du Huit Mai,,,44340,47.1782261678,-1.62076825645
5144,Aire de jeux de la Filée,6,SPORT ET LOISIRS,601,Salle et terrain de sport,60114,Site de loisirs,Non renseigné,LES-SORINIERES,Route de la Filée,,,44840,47.1260824533,-1.5407057864
5180,Aire de jeux,6,SPORT ET LOISIRS,601,Salle et terrain de sport,60114,Site de loisirs,Non renseigné,NANTES,Rue de Chypre,,,44000,47.216313619,-1.52407124819
5190,Aire de jeux,6,SPORT ET LOISIRS,601,Salle et terrain de sport,60114,Site de loisirs,Non renseigné,NANTES,Rue Petite Biesse,,,44200,47.2024470505,-1.54704877837
5191,Aire de jeux,6,SPORT ET LOISIRS,601,Salle et terrain de sport,60114,Site de loisirs,Non renseigné,NANTES,Boulevard Gustave Roch,,,44200,47.2052786302,-1.54997378709
5197,Aire de jeux,6,SPORT ET LOISIRS,601,Salle et terrain de sport,60114,Site de loisirs,Non renseigné,NANTES,Impasse Saint Laurent,,,44000,47.217949415,-1.54927590826
5202,Aire de jeux,6,SPORT ET LOISIRS,601,Salle et terrain de sport,60114,Site de loisirs,Non renseigné,NANTES,Rue Stanislas Baudry,,,44000,47.2206437733,-1.5449989917
5208,Aire de jeux,6,SPORT ET LOISIRS,601,Salle et terrain de sport,60114,Site de loisirs,Non renseigné,NANTES,Rue des Courtils,,,44100,47.2005160162,-1.59330191539
5210,Aire de jeux,6,SPORT ET LOISIRS,601,Salle et terrain de sport,60114,Site de loisirs,Non renseigné,NANTES,Boulevard Benoit Frachon,,,44100,47.2077482697,-1.58015333689
5212,Aire de jeux,6,SPORT ET LOISIRS,601,Salle et terrain de sport,60114,Site de loisirs,Non renseigné,NANTES,Rue du Bois Hercé,,,44100,47.2076304581,-1.59195066932
5214,Aire de jeux,6,SPORT ET LOISIRS,601,Salle et terrain de sport,60114,Site de loisirs,Non renseigné,NANTES,54 Rue de l'Abbaye,,,44100,47.2014891338,-1.59764701412
5220,Aire de jeux,6,SPORT ET LOISIRS,601,Salle et terrain de sport,60114,Site de loisirs,Non renseigné,NANTES,Place des Lauriers,,,44100,47.2043014556,-1.60432302826
5222,Aire de jeux,6,SPORT ET LOISIRS,601,Salle et terrain de sport,60114,Site de loisirs,Non renseigné,NANTES,Chemin de la Charrée,,,44100,47.2124001088,-1.59052139949
5225,Aire de jeux,6,SPORT ET LOISIRS,601,Salle et terrain de sport,60114,Site de loisirs,Non renseigné,NANTES,Rue Marcel Planiol,,,44100,47.2173625347,-1.59623788832
5240,Aire de jeux,6,SPORT ET LOISIRS,601,Salle et terrain de sport,60114,Site de loisirs,Non renseigné,NANTES,Rue du Limousin,,,44000,47.2237125816,-1.56600723104
5242,Aire de jeux,6,SPORT ET LOISIRS,601,Salle et terrain de sport,60114,Site de loisirs,Non renseigné,,,,,44300,47.2381835489,-1.58265675732
5245,Aire de jeux,6,SPORT ET LOISIRS,601,Salle et terrain de sport,60114,Site de loisirs,Non renseigné,NANTES,Boulevard des Américains,,,44300,47.2350544782,-1.57139927154
5260,Aire de jeux,6,SPORT ET LOISIRS,601,Salle et terrain de sport,60114,Site de loisirs,Non renseigné,NANTES,Rue de la Haluchère,,,44300,47.2462045391,-1.51617814846
5261,Aire de jeux,6,SPORT ET LOISIRS,601,Salle et terrain de sport,60114,Site de loisirs,Non renseigné,NANTES,Rue Gustave Eiffel,,,44300,47.2561910804,-1.51963270065
5264,Aire de jeux,6,SPORT ET LOISIRS,601,Salle et terrain de sport,60114,Site de loisirs,Non renseigné,NANTES,Passage des Tauzins,,,44300,47.2657400418,-1.51977561653
5272,Aire de jeux,6,SPORT ET LOISIRS,601,Salle et terrain de sport,60114,Site de loisirs,Non renseigné,NANTES,Rue Louis Pergaud,,,44300,47.2684558248,-1.5189384942
5277,Aire de jeux,6,SPORT ET LOISIRS,601,Salle et terrain de sport,60114,Site de loisirs,Non renseigné,NANTES,Rue Samuel De Champlain,,,44300,47.2604765807,-1.57346954742
5280,Aire de jeux,6,SPORT ET LOISIRS,601,Salle et terrain de sport,60114,Site de loisirs,Non renseigné,NANTES,Rue Santos Dumont,,,44300,47.2598255331,-1.5675404695
5294,Aire de jeux,6,SPORT ET LOISIRS,601,Salle et terrain de sport,60114,Site de loisirs,Non renseigné,REZE,Quai Surcouf,,,44400,47.1954350652,-1.57795150077
5296,Aire de jeux les Prairies de Sèvre,6,SPORT ET LOISIRS,601,Salle et terrain de sport,60114,Site de loisirs,Non renseigné,REZE,Rue René Cassin,,,44400,47.1922545971,-1.54350059455
5300,Aire de jeux,6,SPORT ET LOISIRS,601,Salle et terrain de sport,60114,Site de loisirs,Non renseigné,REZE,Rue des Couteaux,,,44400,47.1882781028,-1.53709231896
5302,Aire de jeux,6,SPORT ET LOISIRS,601,Salle et terrain de sport,60114,Site de loisirs,Non renseigné,REZE,Rue Georges Berthomé,,,44400,47.1807081834,-1.55500680337
62,Gymnase Le Baut,6,SPORT ET LOISIRS,601,Salle et terrain de sport,60109,Gymnase,Ville de Nantes,NANTES,4B Rue des Renards,,,44300,47.2546887974,-1.56286476917
63,Gymnase  Barboire,6,SPORT ET LOISIRS,601,Salle et terrain de sport,60109,Gymnase,Ville de Nantes,,,,,44300,47.2522657383,-1.55512500035
65,Palais des Sports Beaulieu,6,SPORT ET LOISIRS,601,Salle et terrain de sport,60113,Salle omnisports,Ville de Nantes,,,,,44200,47.209525098,-1.5367720763
733,Stade Launay Violette,6,SPORT ET LOISIRS,601,Salle et terrain de sport,60115,Stade,Etat,NANTES,Impasse Charles Chassin,,,44300,47.2490898325,-1.557341244
740,Stade Bois de la Musse Espérance St-Yves,6,SPORT ET LOISIRS,601,Salle et terrain de sport,60115,Stade,Privé,NANTES,9 Rue Marange Sylvange,,,44100,47.2016418632,-1.61194218812
859,Stade Etoile du Cens,6,SPORT ET LOISIRS,601,Salle et terrain de sport,60115,Stade,Privé,NANTES,24 Route de la Chapelle Sur Erdre,,,44300,47.2555015671,-1.57474528417
863,Stade Michel Lecointre Beaulieu,6,SPORT ET LOISIRS,601,Salle et terrain de sport,60115,Stade,Ville de Nantes,NANTES,2 Boulevard Alexandre Millerand,,,44200,47.2096753521,-1.532819015
93,Gymnase ASPTT Appert,6,SPORT ET LOISIRS,601,Salle et terrain de sport,60109,Gymnase,Ville de Nantes,NANTES,Rue Nicolas Appert,,,44100,47.2140537092,-1.57991933506
106,Plaine de Jeux Colinière,6,SPORT ET LOISIRS,601,Salle et terrain de sport,60117,Terrain de grands jeux,Ville de Nantes,NANTES,121 Rue du Landreau,,,44300,47.2353670614,-1.51004339715
1079,Plaine de Jeux Géraudière Santos Dumont,6,SPORT ET LOISIRS,601,Salle et terrain de sport,60117,Terrain de grands jeux,Ville de Nantes,NANTES,Rue Santos Dumont,,,44300,47.2604118635,-1.56825392147
1125,Hippodrome du Petit Port,6,SPORT ET LOISIRS,601,Salle et terrain de sport,60110,Hippodrome,Ville de Nantes,NANTES,2 Boulevard des Tribunes,,,44300,47.2462030143,-1.56316762574
118,Golf Nantes Erdre,6,SPORT ET LOISIRS,601,Salle et terrain de sport,60108,Golf,Ville de Nantes,,,,,44300,47.2692656927,-1.57977559981
1496,Terrain de tennis Bourgeonnière,6,SPORT ET LOISIRS,601,Salle et terrain de sport,60116,Tennis,Ville de Nantes,,,,,44300,47.2532293705,-1.5546390014
1540,Centre Sportif José Arribas,6,SPORT ET LOISIRS,601,Salle et terrain de sport,,,Ville de Nantes,LA-CHAPELLE-SUR-ERDRE,Route de la Jonelière,,,44240,47.2606723386,-1.54147666239
1832,Gymnase Joli Mai,6,SPORT ET LOISIRS,601,Salle et terrain de sport,60109,Gymnase,Non renseigné,ST-HERBLAIN,64 Avenue de Cheverny,,,44800,47.2427074135,-1.60088330027
1837,Espace Multisport Ernest Renan,6,SPORT ET LOISIRS,601,Salle et terrain de sport,60117,Terrain de grands jeux,Public,ST-HERBLAIN,1 Rue de Saint Servan,,,44800,47.2150709208,-1.61251401723
1965,Complexe Sportif Roger-Piccaud,6,SPORT ET LOISIRS,601,Salle et terrain de sport,60109,Gymnase,Public,ORVAULT,108B Avenue Claude Antoine Peccot,,,44700,47.2518860607,-1.61007777455
1966,Stade du Verger,6,SPORT ET LOISIRS,601,Salle et terrain de sport,60115,Stade,Public,,,,,44700,47.2500435216,-1.59134697472
1967,Gymnase Emile Gibier,6,SPORT ET LOISIRS,601,Salle et terrain de sport,60109,Gymnase,Public,ORVAULT,8 Rue des Pins,,,44700,47.2542766661,-1.59552406228
1969,Gymnase Le Bois Raguenet,6,SPORT ET LOISIRS,601,Salle et terrain de sport,60109,Gymnase,Public,,,,,44700,47.2703607674,-1.59619714495
1971,Gymnase de La Bugallière,6,SPORT ET LOISIRS,601,Salle et terrain de sport,60109,Gymnase,Public,ORVAULT,12 Rue du Pont Marchand,,,44700,47.2621189109,-1.63172494866
1974,Stade de Gagné,6,SPORT ET LOISIRS,601,Salle et terrain de sport,60115,Stade,Public,ORVAULT,Chemin de Bazoges,,,44700,47.2831792348,-1.62970765694
2155,Stade René Massé,6,SPORT ET LOISIRS,601,Salle et terrain de sport,60115,Stade,Public,ST-SEBASTIEN,Boulevard des Pas Enchantés,,,44230,47.2113704433,-1.50056168266
2193,Stade de la Croix Jeannette,6,SPORT ET LOISIRS,601,Salle et terrain de sport,60115,Stade,Public,BOUGUENAIS,Rue Pablo Neruda,,,44340,47.1724561982,-1.6228281699
2203,Stade des Landes,6,SPORT ET LOISIRS,601,Salle et terrain de sport,60115,Stade,Public,BOUGUENAIS,Rue Jean Baptiste Clément,,,44340,47.1756170432,-1.58662907978
2433,Complexe Sportif Jean Gauvrit,6,SPORT ET LOISIRS,601,Salle et terrain de sport,60109,Gymnase,Public,CARQUEFOU,Rue Louis Armand,,,44470,47.2958260837,-1.48743117796
2435,Complexe Sportif de La Tournière,6,SPORT ET LOISIRS,601,Salle et terrain de sport,60117,Terrain de grands jeux,Public,CARQUEFOU,Rue du Stade,,,44470,47.3185834223,-1.4699926547
2474,Vélodrome Marcel de la Provôté,6,SPORT ET LOISIRS,601,Salle et terrain de sport,60119,Vélodrome,Non renseigné,COUERON,30 Rue Marcel de la Provoté,,,44220,47.2115055155,-1.736890635
2477,Centre équestre de La Hillière,6,SPORT ET LOISIRS,601,Salle et terrain de sport,60105,Centre équestre,Privé,THOUARE-SUR-LOIRE,6 Rue de la Pamprie,,,44470,47.2853531093,-1.42255629017
2511,Stade de Massigné,6,SPORT ET LOISIRS,601,Salle et terrain de sport,60115,Stade,Non renseigné,LA-CHAPELLE-SUR-ERDRE,Rue Louis Maisonneuve,,,44240,47.298892779,-1.5572541644
2545,Halle de sport La Pavelle,6,SPORT ET LOISIRS,601,Salle et terrain de sport,60109,Gymnase,Non renseigné,SAINT-AIGNAN-GRANDLIEU,Rue du Pressoir,,,44860,47.1242187008,-1.63511419817
2551,Stade Municipal des Loquets,6,SPORT ET LOISIRS,601,Salle et terrain de sport,60115,Stade,Non renseigné,MAUVES-SUR-LOIRE,7 Rue de Thouaré,,,44470,47.2928952022,-1.39372197878
2554,Gymnase Armand Jolaine,6,SPORT ET LOISIRS,601,Salle et terrain de sport,60109,Gymnase,Non renseigné,,,,,44470,47.2933658857,-1.39001753443
2565,Complexe Sportif Sèvre et Maine,6,SPORT ET LOISIRS,601,Salle et terrain de sport,60115,Stade,Non renseigné,VERTOU,Allée de la Vigne de Pâques,,,44120,47.1648119254,-1.46650176744
2580,Centre Equestre (CERVAL),6,SPORT ET LOISIRS,601,Salle et terrain de sport,60105,Centre équestre,Non renseigné,SAINTE-LUCE-SUR-LOIRE,Route du Landreau du Pas,,,44980,47.2557045305,-1.45549029885
2607,Base Nautique de Port Barbe,6,SPORT ET LOISIRS,601,Salle et terrain de sport,60101,Base nautique,Non renseigné,LA-CHAPELLE-SUR-ERDRE,Route de la Jonelière,,,44240,47.2646141074,-1.54003682642
2624,Centre Equestre de la Vaillantière,6,SPORT ET LOISIRS,601,Salle et terrain de sport,60105,Centre équestre,Non renseigné,LA-CHAPELLE-SUR-ERDRE,Rue Gulliver,,,44240,47.3413445169,-1.58079610416
2656,Gymnase Lysiane et Michel Liberge,6,SPORT ET LOISIRS,601,Salle et terrain de sport,60109,Gymnase,Non renseigné,REZE,11 Rue de la Galarnière,,,44400,47.1781407711,-1.5587292844
2660,Gymnase Cités Unies COSEC,6,SPORT ET LOISIRS,601,Salle et terrain de sport,60109,Gymnase,Non renseigné,REZE,Avenue Léon Blum,,,44400,47.1836325689,-1.56911451461
2663,Gymnase Foyer AEPR,6,SPORT ET LOISIRS,601,Salle et terrain de sport,60109,Gymnase,Non renseigné,,,,,44400,47.186745913,-1.55069399662
2670,Gymnase 2,6,SPORT ET LOISIRS,601,Salle et terrain de sport,60109,Gymnase,Non renseigné,VERTOU,Allée de la Vigne de Pâques,,,44120,47.1643410285,-1.46729104512
2672,Roller-Skatepark - Les Sorinières,6,SPORT ET LOISIRS,602,Pratique libre,60202,Skatepark,Municipal,LES-SORINIERES,Rue du Bocage,,,44840,47.1515913043,-1.51806451206
27,Gymnase Jean-Yves Leroy - ASC Bonne Garde,6,SPORT ET LOISIRS,601,Salle et terrain de sport,60109,Gymnase,Privé,,,,,44200,47.1953200424,-1.54025002055
28,Gymnase Emile Morice,6,SPORT ET LOISIRS,601,Salle et terrain de sport,60109,Gymnase,Ville de Nantes,NANTES,8 Quai Hoche,,,44200,47.2064593486,-1.55149275355
3309,Centre de tennis Arthur Ashe,6,SPORT ET LOISIRS,601,Salle et terrain de sport,60116,Tennis,Public,BOUGUENAIS,Chemin de la Neustrie,,,44340,47.1766393363,-1.59180918475
3336,Terrain de Tir à l'Arc Vertou,6,SPORT ET LOISIRS,601,Salle et terrain de sport,60118,Tir,Non renseigné,VERTOU,Route du Mortier Vannerie,,,44120,47.183923054,-1.4983151789
3382,Stade La Herdrie,6,SPORT ET LOISIRS,601,Salle et terrain de sport,60115,Stade,Public,BASSE-GOULAINE,81 Rue de la Basse Lande,,,44115,47.1970606985,-1.45184388256
3593,Stade Georges Tougeron,6,SPORT ET LOISIRS,601,Salle et terrain de sport,60115,Stade,Non renseigné,BOUAYE,Rue du Stade,,,44830,47.1498081043,-1.69313171132
3818,Gymnase CEPA,6,SPORT ET LOISIRS,601,Salle et terrain de sport,60109,Gymnase,Privé,NANTES,9 Rue Pélisson,,,44000,47.2122960053,-1.55134942987
3901,Terrain multi-sports Terrain A. Fournier,6,SPORT ET LOISIRS,602,Pratique libre,60201,Terrain multi-sports,Ville de Nantes,NANTES,87 Rue du Bois Hardy,,,44100,47.2046109178,-1.60070048614
3912,Terrain multi-sports Moutonnerie,6,SPORT ET LOISIRS,602,Pratique libre,60201,Terrain multi-sports,Ville de Nantes,NANTES,Rue Francisco Ferrer,,,44000,47.2209116116,-1.53364947089
3938,Halle de Tennis de la Marrière,6,SPORT ET LOISIRS,601,Salle et terrain de sport,60116,Tennis,Ville de Nantes,NANTES,95 Rue de la Marrière,,,44300,47.2368185753,-1.52784818951
3940,Stade René Chevalier,6,SPORT ET LOISIRS,601,Salle et terrain de sport,60115,Stade,Privé,NANTES,72 Rue du Pontereau,,,44300,47.2399352448,-1.50511836067
3953,Boulodrome du Bèle,6,SPORT ET LOISIRS,601,Salle et terrain de sport,60103,Boulodrome,Ville de Nantes,,,,,44300,47.2598818439,-1.51301291715
3957,Bowling de l'Erdre,6,SPORT ET LOISIRS,601,Salle et terrain de sport,60104,Bowling,Privé,CARQUEFOU,24 Boulevard Ampère,,,44470,47.301824836,-1.5036170198
4114,Gymnase Port-au-Blé,6,SPORT ET LOISIRS,601,Salle et terrain de sport,60109,Gymnase,Non renseigné,REZE,Avenue André Malraux,,,44400,47.1902520447,-1.55287080771
4221,Court de Tennis,6,SPORT ET LOISIRS,601,Salle et terrain de sport,60116,Tennis,Public,BASSE-GOULAINE,Rue de la Poste,,,44115,47.2185329355,-1.46781575298
4258,Salle de Tennis Centaure,6,SPORT ET LOISIRS,601,Salle et terrain de sport,60116,Tennis,Non renseigné,SAUTRON,Rue de la Forêt,,,44880,47.2669270958,-1.67886426485
4299,Color'ado,6,SPORT ET LOISIRS,601,Salle et terrain de sport,,,Public,CARQUEFOU,Rue Pierre Mendes France,,,44470,47.3029252597,-1.49269655662
4356,Piste d'athlétisme,6,SPORT ET LOISIRS,601,Salle et terrain de sport,60115,Stade,Non renseigné,LA-CHAPELLE-SUR-ERDRE,Rue Louis Maisonneuve,,,44240,47.2981980311,-1.55717878003
4359,Courts de Tennis du Gesvres,6,SPORT ET LOISIRS,601,Salle et terrain de sport,60116,Tennis,Non renseigné,LA-CHAPELLE-SUR-ERDRE,Boulevard du Gesvres,,,44240,47.267252004,-1.55164078067
4370,Halle des Sports de Mazaire,6,SPORT ET LOISIRS,601,Salle et terrain de sport,60109,Gymnase,Non renseigné,LA-CHAPELLE-SUR-ERDRE,Rue de la Hautière,,,44240,47.2963662105,-1.55784798553
4380,Salle des Samouraïs,6,SPORT ET LOISIRS,601,Salle et terrain de sport,60106,Combats ? Arts martiaux,Public,BOUGUENAIS,Square Pablo Neruda,,,44340,47.1713225993,-1.62186478137
4392,Skatepark - Bouguenais,6,SPORT ET LOISIRS,602,Pratique libre,60202,Skatepark,Public,BOUGUENAIS,Allée de la Communauté Rurale de Ballou,,,44340,47.1778083507,-1.62985940537
4907,Salle sportive métropolitaine de Rezé,6,SPORT ET LOISIRS,601,Salle et terrain de sport,60113,Salle omnisports,Non renseigné,,,,,44400,47.1799156677,-1.5717672514
4935,Plateau multi-sports Port-au-Blé,6,SPORT ET LOISIRS,602,Pratique libre,60201,Terrain multi-sports,Non renseigné,REZE,Avenue André Malraux,,,44400,47.1904034054,-1.55362978852
4938,Plateau multi-sports Petite-Lande,6,SPORT ET LOISIRS,602,Pratique libre,60201,Terrain multi-sports,Non renseigné,REZE,Rue Augustin Mouillé,,,44400,47.1793379426,-1.55015207451
4952,Aire de jeux de Beautour,6,SPORT ET LOISIRS,601,Salle et terrain de sport,60114,Site de loisirs,Non renseigné,VERTOU,Rue de la Cale,,,44120,47.1799684783,-1.51197952605
5013,Skatepark Beaujoire,6,SPORT ET LOISIRS,602,Pratique libre,60202,Skatepark,Ville de Nantes,NANTES,Rue du Fort,,,44300,47.2642518732,-1.53117584723
5019,Terrain multi-sports parc des Capucins,6,SPORT ET LOISIRS,602,Pratique libre,60201,Terrain multi-sports,Ville de Nantes,NANTES,37 Rue Noire,,,44000,47.2252753342,-1.56281382325
5027,Halle de Tennis de La Jonelière,6,SPORT ET LOISIRS,601,Salle et terrain de sport,60116,Tennis,Non renseigné,LA-CHAPELLE-SUR-ERDRE,Route de la Jonelière,,,44240,47.2594205644,-1.54360968373
5100,Aire de jeux île Forget,6,SPORT ET LOISIRS,601,Salle et terrain de sport,60114,Site de loisirs,Non renseigné,ST-SEBASTIEN,Boulevard des Pas Enchantés,,,44230,47.2102607097,-1.51351861149
5102,Aire de jeux de la Martinière,6,SPORT ET LOISIRS,601,Salle et terrain de sport,60114,Site de loisirs,Non renseigné,ST-SEBASTIEN,Avenue de la Martellière,,,44230,47.1993477462,-1.52503902304
5110,Aire de jeux Debussy,6,SPORT ET LOISIRS,601,Salle et terrain de sport,60114,Site de loisirs,Non renseigné,ST-SEBASTIEN,Allée Debussy,,,44230,47.2071850057,-1.48980964647
5135,Aire de jeux du Clos St Père,6,SPORT ET LOISIRS,601,Salle et terrain de sport,60114,Site de loisirs,Non renseigné,BOUGUENAIS,Rue du Clos St Père,,,44340,47.1793100959,-1.58481005538
5150,Aire de jeux,6,SPORT ET LOISIRS,601,Salle et terrain de sport,60114,Site de loisirs,Non renseigné,LA-MONTAGNE,Rue de la Mairie,,,44620,47.1916484593,-1.68587889766
5154,Aire de jeux,6,SPORT ET LOISIRS,601,Salle et terrain de sport,60114,Site de loisirs,Non renseigné,SAINT-AIGNAN-GRANDLIEU,Rue des Aigrettes,,,44860,47.1202991046,-1.64016523489
5158,Aire de jeux,6,SPORT ET LOISIRS,601,Salle et terrain de sport,60114,Site de loisirs,Non renseigné,NANTES,Boulevard Jules Verne,,,44300,47.2451295884,-1.52478036768
5159,Aire de jeux,6,SPORT ET LOISIRS,601,Salle et terrain de sport,60114,Site de loisirs,Non renseigné,NANTES,Rue Augustin Fresnel,,,44300,47.2416534372,-1.5231329754
5165,Aire de jeux,6,SPORT ET LOISIRS,601,Salle et terrain de sport,60114,Site de loisirs,Non renseigné,NANTES,1 Boulevard Jules Verne,,,44300,47.2350085703,-1.53572348663
5167,Aire de jeux,6,SPORT ET LOISIRS,601,Salle et terrain de sport,60114,Site de loisirs,Non renseigné,NANTES,Rue Alfred Nobel,,,44300,47.2372703151,-1.5217193883
5169,Aire de jeux,6,SPORT ET LOISIRS,601,Salle et terrain de sport,60114,Site de loisirs,Non renseigné,NANTES,Rue René Dumont,,,44300,47.2396206454,-1.51484699044
5171,Aire de jeux,6,SPORT ET LOISIRS,601,Salle et terrain de sport,60114,Site de loisirs,Non renseigné,NANTES,Boulevard Auguste Péneau,,,44300,47.2270204035,-1.50886714487
5185,Aire de jeux,6,SPORT ET LOISIRS,601,Salle et terrain de sport,60114,Site de loisirs,Non renseigné,NANTES,Place de la Basse Mar,,,44200,47.2082156839,-1.52535499795
5187,Aire de jeux,6,SPORT ET LOISIRS,601,Salle et terrain de sport,60114,Site de loisirs,Non renseigné,NANTES,Rue des Gobelets,,,44200,47.1915124804,-1.53064004327
5188,Aire de jeux,6,SPORT ET LOISIRS,601,Salle et terrain de sport,60114,Site de loisirs,Non renseigné,NANTES,Bas Chemin de Vertou,,,44200,47.182561039,-1.51964510454
5192,Aire de jeux,6,SPORT ET LOISIRS,601,Salle et terrain de sport,60114,Site de loisirs,Non renseigné,NANTES,Rue Henri Sellier,,,44200,47.1950277046,-1.54283979512
5207,Aire de jeux,6,SPORT ET LOISIRS,601,Salle et terrain de sport,60114,Site de loisirs,Non renseigné,NANTES,Rue des Garennes,,,44100,47.2013512434,-1.58139067113
5227,Aire de jeux,6,SPORT ET LOISIRS,601,Salle et terrain de sport,60114,Site de loisirs,Non renseigné,NANTES,Rue Edmond Bertreux,,,44100,47.2241261806,-1.59853934706
5230,Aire de jeux,6,SPORT ET LOISIRS,601,Salle et terrain de sport,60114,Site de loisirs,Non renseigné,NANTES,Rue Auguste Renoir,,,44100,47.222846783,-1.59338389407
5239,Aire de jeux,6,SPORT ET LOISIRS,601,Salle et terrain de sport,60114,Site de loisirs,Non renseigné,NANTES,Rue Julien Duvivier,,,44100,47.230441113,-1.5859146375
5259,Aire de jeux,6,SPORT ET LOISIRS,601,Salle et terrain de sport,60114,Site de loisirs,Non renseigné,NANTES,Route de Sainte Luce,,,44300,47.2413333514,-1.50947592762
5263,Aire de jeux,6,SPORT ET LOISIRS,601,Salle et terrain de sport,60114,Site de loisirs,Non renseigné,NANTES,Passage des Tauzins,,,44300,47.2662603218,-1.5199541891
5292,Aire de jeux,6,SPORT ET LOISIRS,601,Salle et terrain de sport,60114,Site de loisirs,Non renseigné,ORVAULT,Rue du Patureau,,,44700,47.2731119049,-1.6270938621
5298,Aire de jeux du Port-au-Blé,6,SPORT ET LOISIRS,601,Salle et terrain de sport,60114,Site de loisirs,Non renseigné,REZE,Rue Maurice Garand,,,44400,47.1924758955,-1.55182838412
5308,Aire de jeux,6,SPORT ET LOISIRS,601,Salle et terrain de sport,60114,Site de loisirs,Non renseigné,ST-HERBLAIN,Rue du Danube,,,44800,47.243869171,-1.61156481627
5311,Aire de jeux de la Vallée de la Chézine,6,SPORT ET LOISIRS,601,Salle et terrain de sport,60114,Site de loisirs,Non renseigné,ST-HERBLAIN,Boulevard du Val de Chézine,,,44800,47.2367161755,-1.60899793232
58,Gymnase Longchamp,6,SPORT ET LOISIRS,601,Salle et terrain de sport,60109,Gymnase,Ville de Nantes,NANTES,Avenue Junon,,,44300,47.240941788,-1.57776513656
67,Gymnase Gaston Turpin,6,SPORT ET LOISIRS,601,Salle et terrain de sport,60109,Gymnase,Ville de Nantes,,,,,44000,47.2236630238,-1.5410724204
696,Stade Batignolles,6,SPORT ET LOISIRS,601,Salle et terrain de sport,60115,Stade,Privé,NANTES,20 Rue de Koufra,,,44300,47.2452728946,-1.52669753612
737,Stade Procé,6,SPORT ET LOISIRS,601,Salle et terrain de sport,60115,Stade,Ville de Nantes,NANTES,13 Boulevard Clovis Constant,,,44000,47.2244928698,-1.58037970431
739,Plaine de Jeux Bernardière,6,SPORT ET LOISIRS,601,Salle et terrain de sport,60117,Terrain de grands jeux,Ville de Nantes,NANTES,Rue de la Fontaine Salée,,,44100,47.2022635541,-1.61578033209
741,Plaine de Jeux Lycée Albert Camus,6,SPORT ET LOISIRS,601,Salle et terrain de sport,60117,Terrain de grands jeux,Ville de Nantes,NANTES,2 Rue du Bois de la Musse,,,44100,47.2030301294,-1.61000449151
841,Gymnase Agenêts,6,SPORT ET LOISIRS,601,Salle et terrain de sport,60109,Gymnase,Ville de Nantes,NANTES,30 Rue du Casterneau,,,44000,47.2272167095,-1.53111132063
849,Plaine de Jeux de la Mainguais,6,SPORT ET LOISIRS,601,Salle et terrain de sport,60117,Terrain de grands jeux,Ville de Nantes,NANTES,Chemin de la Mainguais,,,44470,47.279165523,-1.49093783449
860,Stade l'Amande,6,SPORT ET LOISIRS,601,Salle et terrain de sport,60115,Stade,Ville de Nantes,,,,,44300,47.2624908424,-1.57333713952
104,Stade de la Beaujoire Louis Fonteneau,6,SPORT ET LOISIRS,601,Salle et terrain de sport,60115,Stade,Ville de Nantes,NANTES,330 Route de Saint Joseph,,,44300,47.2560188245,-1.52470398569
108,Vélodrome Stade Petit Breton,6,SPORT ET LOISIRS,601,Salle et terrain de sport,60119,Vélodrome,Ville de Nantes,,,,,44100,47.2138786485,-1.60046870257
1439,Circuits Rustiques d'Activités Plein Air - Blottereau,6,SPORT ET LOISIRS,602,Pratique libre,60203,Parcours sportif,Ville de Nantes,NANTES,Boulevard Auguste Péneau,,,44300,47.2259382711,-1.50893454387
1835,Stade Calvaires,6,SPORT ET LOISIRS,601,Salle et terrain de sport,60115,Stade,Public,ST-HERBLAIN,Rue des Calvaires,,,44800,47.2150249068,-1.64989325926
1844,Gymnase du Bourg,6,SPORT ET LOISIRS,601,Salle et terrain de sport,60109,Gymnase,Public,ST-HERBLAIN,1 Avenue des Sports,,,44800,47.210746403,-1.65323605346
2040,Complexe Sportif de La Martellière,6,SPORT ET LOISIRS,601,Salle et terrain de sport,60109,Gymnase,Public,ST-SEBASTIEN,Avenue de la Martellière,,,44230,47.1980805908,-1.52683676016
2069,Ensemble Sportif de l'Orvasserie,6,SPORT ET LOISIRS,601,Salle et terrain de sport,60117,Terrain de grands jeux,Public,ST-HERBLAIN,30 Rue Konrad Adenauer,,,44800,47.205457014,-1.633785444
2154,Centre Equestre Ile Pinette,6,SPORT ET LOISIRS,601,Salle et terrain de sport,60105,Centre équestre,Public,ST-SEBASTIEN,Boulevard des Pas Enchantés,,,44230,47.2111885926,-1.50685768733
2204,Plateau d'évolution Cité de Beauvoir,6,SPORT ET LOISIRS,602,Pratique libre,60201,Terrain multi-sports,Public,BOUGUENAIS,Rue Jacques Demy,,,44340,47.179004162,-1.6282896546
2431,Site sportif du Moulin Boisseau,6,SPORT ET LOISIRS,601,Salle et terrain de sport,,,Public,CARQUEFOU,Rue du Moulin Boisseau,,,44470,47.2843363831,-1.48185667657
2505,Centre Equestre Poney Club,6,SPORT ET LOISIRS,601,Salle et terrain de sport,60105,Centre équestre,Non renseigné,LES-SORINIERES,Chemin de la Garennerie,,,44840,47.1498859371,-1.51644265414
2654,Stade Léo Lagrange,6,SPORT ET LOISIRS,601,Salle et terrain de sport,60115,Stade,Non renseigné,REZE,Avenue Léon Blum,,,44400,47.1818649948,-1.56942932517
2662,Gymnase E. Cretual,6,SPORT ET LOISIRS,601,Salle et terrain de sport,60109,Gymnase,Non renseigné,REZE,30 Rue Augustin Mouillé,,,44400,47.1784225862,-1.54863253584
3088,Gymnase Joachim Marnier,6,SPORT ET LOISIRS,601,Salle et terrain de sport,60109,Gymnase,Non renseigné,LES-SORINIERES,Rue des Papillons,,,44840,47.148477005,-1.52311674613
3239,Courts de Tennis Robinière,6,SPORT ET LOISIRS,601,Salle et terrain de sport,60116,Tennis,Non renseigné,REZE,Rue des Poyaux,,,44400,47.1627492936,-1.529664628
3371,Skatepark Jouandière - Carquefou,6,SPORT ET LOISIRS,602,Pratique libre,60202,Skatepark,Municipal,CARQUEFOU,Allée de la Jouandière,,,44470,47.2831141939,-1.48327869866
3458,Courts de Tennis,6,SPORT ET LOISIRS,601,Salle et terrain de sport,60116,Tennis,Non renseigné,LE-PELLERIN,Rue de la Jouardais,,,44640,47.1961900286,-1.7615804651
3459,Terrain de pétanque,6,SPORT ET LOISIRS,601,Salle et terrain de sport,60103,Boulodrome,Non renseigné,LE-PELLERIN,Rue de la Jouardais,,,44640,47.1960744897,-1.75932744794
3461,Tennis Saint Aignan de Grand Lieu,6,SPORT ET LOISIRS,601,Salle et terrain de sport,60116,Tennis,Non renseigné,SAINT-AIGNAN-GRANDLIEU,Place Saint Amani,,,44860,47.1207193951,-1.63772248152
36,Gymnase Doulon,6,SPORT ET LOISIRS,601,Salle et terrain de sport,60109,Gymnase,Ville de Nantes,NANTES,1 Rue de la Basse Chénaie,,,44300,47.2372383102,-1.51029286857
37,Centre Sportif Croissant,6,SPORT ET LOISIRS,601,Salle et terrain de sport,60109,Gymnase,Ville de Nantes,NANTES,29 Rue du Croissant,,,44300,47.2351002409,-1.52250612564
3788,Stade des Echalonnières,6,SPORT ET LOISIRS,601,Salle et terrain de sport,60115,Stade,Non renseigné,VERTOU,Rue du Bignonnet,,,44120,47.1762811473,-1.46628233615
3789,Plateau sportif Les Echalonnières,6,SPORT ET LOISIRS,602,Pratique libre,60201,Terrain multi-sports,Non renseigné,VERTOU,Rue du Bignonnet,,,44120,47.1759243939,-1.46967484523
3910,Terrrain multi-sports Malakoff,6,SPORT ET LOISIRS,602,Pratique libre,60201,Terrain multi-sports,Ville de Nantes,NANTES,Rue de Corse,,,44000,47.2162064932,-1.52077938686
3924,Terrain multi-sports Winnipeg,6,SPORT ET LOISIRS,602,Pratique libre,60201,Terrain multi-sports,Ville de Nantes,NANTES,Rue de Vancouver,,,44300,47.2595297013,-1.57826013819
3939,Terrain multi-sports marché de la Marrière,6,SPORT ET LOISIRS,602,Pratique libre,60201,Terrain multi-sports,Ville de Nantes,NANTES,27 Rue de la Marrière,,,44300,47.2341578247,-1.53252726892
4039,Complexe Sportif Le Souchais,6,SPORT ET LOISIRS,601,Salle et terrain de sport,60109,Gymnase,Public,CARQUEFOU,1 Avenue de la Loire,,,44470,47.3039615381,-1.50241581132
4102,Gymnase Bottière Chénaie,6,SPORT ET LOISIRS,601,Salle et terrain de sport,60109,Gymnase,Ville de Nantes,NANTES,Rue des Carnavaliers,,,44300,47.2374340636,-1.5141369286
4132,Gymnase Arthur-Dugast,6,SPORT ET LOISIRS,601,Salle et terrain de sport,60109,Gymnase,Non renseigné,,,,,44400,47.1654796997,-1.54438744646
4151,Espace Multisport Solvardière,6,SPORT ET LOISIRS,601,Salle et terrain de sport,60117,Terrain de grands jeux,Municipal,,,,,44800,47.216699501,-1.6417608315
4168,Cercle Nautique d'Indre,6,SPORT ET LOISIRS,601,Salle et terrain de sport,60101,Base nautique,Non renseigné,INDRE,Quai Henri Brunais,,,44610,47.1960700454,-1.66910329866
4261,Salle Omnisport Delta,6,SPORT ET LOISIRS,601,Salle et terrain de sport,60109,Gymnase,Non renseigné,SAUTRON,Rue de la Forêt,,,44880,47.2661642915,-1.67787223018
4262,Salle Omnisport Bellatrix,6,SPORT ET LOISIRS,601,Salle et terrain de sport,60109,Gymnase,Non renseigné,SAUTRON,Rue de la Forêt,,,44880,47.2660375775,-1.67874387281
4357,Boulodrome de Massigné,6,SPORT ET LOISIRS,601,Salle et terrain de sport,60103,Boulodrome,Non renseigné,LA-CHAPELLE-SUR-ERDRE,Rue Louis Maisonneuve,,,44240,47.2991404931,-1.55900172766
4360,Terrain multisports de Gesvres,6,SPORT ET LOISIRS,602,Pratique libre,60201,Terrain multi-sports,Non renseigné,LA-CHAPELLE-SUR-ERDRE,Boulevard du Gesvres,,,44240,47.2669945795,-1.55129377991
4394,Espace René Cassin - salle Cécile Nowak,6,SPORT ET LOISIRS,601,Salle et terrain de sport,60106,Combats ? Arts martiaux,Non renseigné,LE-PELLERIN,Rue de la Jouardais,,,44640,47.1941796763,-1.76175348982
4472,Courts de Tennis,6,SPORT ET LOISIRS,601,Salle et terrain de sport,60116,Tennis,Non renseigné,MAUVES-SUR-LOIRE,Rue des Saulzais,,,44470,47.2934626546,-1.39092544984
45,Gymnase Urbain Le Verrier,6,SPORT ET LOISIRS,601,Salle et terrain de sport,60109,Gymnase,Ville de Nantes,NANTES,11 Rue Urbain Le Verrier,,,44300,47.2415235942,-1.52150628928
4868,Plateau multi-sports Château-Sud,6,SPORT ET LOISIRS,602,Pratique libre,60201,Terrain multi-sports,Non renseigné,REZE,Place Jean Perrin,,,44400,47.1815630226,-1.55834626566
4967,Centre équestre du Bois Brûlé,6,SPORT ET LOISIRS,601,Salle et terrain de sport,60105,Centre équestre,Privé,BASSE-GOULAINE,152 Rue du Bois Brulé,,,44115,47.1873870632,-1.44807957078
5015,Terrain multi-sports le Gigant,6,SPORT ET LOISIRS,602,Pratique libre,60201,Terrain multi-sports,Ville de Nantes,NANTES,29 Rue du Fonteny,,,44100,47.2044442766,-1.59274945868
5020,Terrain multi-sports Paul Gauguin,6,SPORT ET LOISIRS,602,Pratique libre,60201,Terrain multi-sports,Ville de Nantes,,,,,44300,47.2609963745,-1.5765849691
5052,Stand de tir de la Robinière,6,SPORT ET LOISIRS,601,Salle et terrain de sport,60118,Tir,Non renseigné,REZE,Rue des Poyaux,,,44400,47.1644044925,-1.52840563772
5108,Aire de jeux des Cévennes,6,SPORT ET LOISIRS,601,Salle et terrain de sport,60114,Site de loisirs,Non renseigné,ST-SEBASTIEN,Rue des Cévennes,,,44230,47.2031903341,-1.48883624084
5125,Parkour,6,SPORT ET LOISIRS,602,Pratique libre,60203,Parcours sportif,Non renseigné,NANTES,Boulevard Gaston Doumergue,,,44200,47.2077548897,-1.54681771059
5134,Aire de Jeux Grande Ouche,6,SPORT ET LOISIRS,601,Salle et terrain de sport,60114,Site de loisirs,Non renseigné,BOUGUENAIS,Rue de la Grande Ouche,,,44340,47.1814139488,-1.5805456127
5142,Aire de Jeux Croix-Jeannette,6,SPORT ET LOISIRS,601,Salle et terrain de sport,60114,Site de loisirs,Non renseigné,BOUGUENAIS,Place de la Croix Jeannette,,,44340,47.1719189357,-1.62203355601
5152,Aire de jeux,6,SPORT ET LOISIRS,601,Salle et terrain de sport,60114,Site de loisirs,Non renseigné,LA-MONTAGNE,Place de l'Eglise,,,44620,47.1900440403,-1.68386054935
5162,Aire de jeux,6,SPORT ET LOISIRS,601,Salle et terrain de sport,60114,Site de loisirs,Non renseigné,NANTES,Rue Alfred Nobel,,,44300,47.237752782,-1.5186688211
5172,Aire de jeux,6,SPORT ET LOISIRS,601,Salle et terrain de sport,60114,Site de loisirs,Non renseigné,NANTES,Boulevard Louis Millet,,,44300,47.2265995797,-1.52102740925
5174,Aire de jeux,6,SPORT ET LOISIRS,601,Salle et terrain de sport,60114,Site de loisirs,Non renseigné,NANTES,Rue Francisco Ferrer,,,44000,47.2209085937,-1.53293178762
5179,Aire de jeux,6,SPORT ET LOISIRS,601,Salle et terrain de sport,60114,Site de loisirs,Non renseigné,NANTES,Rue de Chypre,,,44000,47.2165515348,-1.52246933476
5181,Aire de jeux,6,SPORT ET LOISIRS,601,Salle et terrain de sport,60114,Site de loisirs,Non renseigné,NANTES,Rue de Madrid,,,44000,47.2145277757,-1.53171697694
5183,Aire de jeux,6,SPORT ET LOISIRS,601,Salle et terrain de sport,60114,Site de loisirs,Non renseigné,NANTES,Rue d'Angleterre,,,44000,47.2149314762,-1.52787662575
5195,Aire de jeux,6,SPORT ET LOISIRS,601,Salle et terrain de sport,60114,Site de loisirs,Non renseigné,NANTES,Rue du Scorff,,,44200,47.2021632362,-1.55169666661
5217,Aire de jeux,6,SPORT ET LOISIRS,601,Salle et terrain de sport,60114,Site de loisirs,Non renseigné,NANTES,Rue de l'Adour,,,44100,47.2078721474,-1.60983464164
5231,Aire de jeux,6,SPORT ET LOISIRS,601,Salle et terrain de sport,60114,Site de loisirs,Non renseigné,NANTES,Rue des Dervallières,,,44100,47.2220910475,-1.58171915022
5232,Aire de jeux,6,SPORT ET LOISIRS,601,Salle et terrain de sport,60114,Site de loisirs,Non renseigné,NANTES,Pont Jules César,,,44100,47.2244018009,-1.5858450407
5235,Aire de jeux,6,SPORT ET LOISIRS,601,Salle et terrain de sport,60114,Site de loisirs,Non renseigné,NANTES,Rue du Limousin,,,44000,47.2244561172,-1.56757081667
5236,Aire de jeux,6,SPORT ET LOISIRS,601,Salle et terrain de sport,60114,Site de loisirs,Non renseigné,NANTES,Quai Henri Barbusse,,,44000,47.226486024,-1.55441137407
5237,Aire de jeux,6,SPORT ET LOISIRS,601,Salle et terrain de sport,60114,Site de loisirs,Non renseigné,NANTES,Rue Jules Noël,,,44100,47.2284978609,-1.58575062384
5246,Aire de jeux,6,SPORT ET LOISIRS,601,Salle et terrain de sport,60114,Site de loisirs,Non renseigné,NANTES,Chemin Pierre Joseph,,,44300,47.2437936297,-1.56734126125
5247,Aire de jeux,6,SPORT ET LOISIRS,601,Salle et terrain de sport,60114,Site de loisirs,Non renseigné,NANTES,Allée des Nouvelles Hébrides,,,44300,47.2442333347,-1.57029372291
5250,Aire de jeux,6,SPORT ET LOISIRS,601,Salle et terrain de sport,60114,Site de loisirs,Non renseigné,NANTES,Rue Prosper Mérimée,,,44300,47.2551055647,-1.56738797806
5256,Aire de jeux,6,SPORT ET LOISIRS,601,Salle et terrain de sport,60114,Site de loisirs,Non renseigné,NANTES,Rue de Bolivie,,,44300,47.2580538484,-1.56752344308
5258,Aire de jeux Square Félix Thomas,6,SPORT ET LOISIRS,601,Salle et terrain de sport,60114,Site de loisirs,Non renseigné,NANTES,Rue Toulmouche,,,44000,47.2310245075,-1.55297882032
5271,Aire de jeux,6,SPORT ET LOISIRS,601,Salle et terrain de sport,60114,Site de loisirs,Non renseigné,NANTES,Rue Léon Serpollet,,,44300,47.2543059221,-1.52028742533
5281,Aire de jeux,6,SPORT ET LOISIRS,601,Salle et terrain de sport,60114,Site de loisirs,Non renseigné,NANTES,Route de Saint Joseph,,,44300,47.2610459346,-1.53347091105
5284,Aire de jeux,6,SPORT ET LOISIRS,601,Salle et terrain de sport,60114,Site de loisirs,Non renseigné,NANTES,Chemin de Belle Ile,,,44300,47.2465671862,-1.54261056826
5293,Aire de jeux,6,SPORT ET LOISIRS,601,Salle et terrain de sport,60114,Site de loisirs,Non renseigné,ORVAULT,Avenue de la Bugallière,,,44700,47.259638092,-1.63715909529
5297,Aire de jeux de la Carterie,6,SPORT ET LOISIRS,601,Salle et terrain de sport,60114,Site de loisirs,Non renseigné,REZE,Rue Pierre Brossolette,,,44400,47.1861797831,-1.54938455205
5309,Aire de jeux,6,SPORT ET LOISIRS,601,Salle et terrain de sport,60114,Site de loisirs,Non renseigné,ST-HERBLAIN,Rue de l'Ecole,,,44800,47.2173781882,-1.607728888
5316,Aire de jeux,6,SPORT ET LOISIRS,601,Salle et terrain de sport,60114,Site de loisirs,Non renseigné,SAINTE-LUCE-SUR-LOIRE,Allée Robert Cheval,,,44980,47.2437598835,-1.46029728167
72,Gymnase Léo Lagrange,6,SPORT ET LOISIRS,601,Salle et terrain de sport,60109,Gymnase,Ville de Nantes,,,,,44000,47.2099975422,-1.55964752712
721,Terrain multi-sports Clos Toreau,6,SPORT ET LOISIRS,602,Pratique libre,60201,Terrain multi-sports,Ville de Nantes,NANTES,3 Rue d'Hasparren,,,44200,47.1958575795,-1.52609991363
743,Stade La Mellinet-Audrain,6,SPORT ET LOISIRS,601,Salle et terrain de sport,60115,Stade,Privé,NANTES,57 Rue de la Marzelle de Grillaud,,,44100,47.220062689,-1.59280873206
77,Gymnase La Similienne,6,SPORT ET LOISIRS,601,Salle et terrain de sport,60109,Gymnase,Privé,NANTES,26B Rue des Hauts Pavés,,,44000,47.2239660593,-1.56288962868
80,Gymnase Armand Coidelle,6,SPORT ET LOISIRS,601,Salle et terrain de sport,60109,Gymnase,Ville de Nantes,NANTES,10 Rue la Fayette,,,44000,47.2164042717,-1.56139306491
107,Plaine de Jeux Basses Landes,6,SPORT ET LOISIRS,601,Salle et terrain de sport,60117,Terrain de grands jeux,Ville de Nantes,NANTES,6 Chemin de la Justice,,,44300,47.2691044368,-1.58770491732
109,Plaine de Jeux Durantière,6,SPORT ET LOISIRS,601,Salle et terrain de sport,60117,Terrain de grands jeux,Ville de Nantes,NANTES,11 Rue de la Durantière,,,44100,47.2117738176,-1.60037031869
114,Piscine Léo Lagrange Ile Gloriette - Nantes,6,SPORT ET LOISIRS,601,Salle et terrain de sport,60112,Piscine,Ville de Nantes,NANTES,Rue Deurbroucq,,,44000,47.2098578349,-1.56006614168
1239,Stade Racing Athlétic Club Cheminots,6,SPORT ET LOISIRS,601,Salle et terrain de sport,60115,Stade,Privé,NANTES,11 Rue de la Rivière,,,44300,47.232863882,-1.49998704188
2045,Gymnase du Douet,6,SPORT ET LOISIRS,601,Salle et terrain de sport,60109,Gymnase,Public,ST-SEBASTIEN,10 Rue Edouard Hervé,,,44230,47.1914129715,-1.52081101336
2161,Stade de la Ligue Atlantique de Football,6,SPORT ET LOISIRS,601,Salle et terrain de sport,60115,Stade,Public,ST-SEBASTIEN,Boulevard des Pas Enchantés,,,44230,47.2126800736,-1.49576483067
2248,Golf Miniature,6,SPORT ET LOISIRS,601,Salle et terrain de sport,60108,Golf,Public,INDRE,Quai Victor Boquien,,,44610,47.1969507681,-1.67143791522
2316,Complexe Sportif Jean Jahan,6,SPORT ET LOISIRS,601,Salle et terrain de sport,60109,Gymnase,Ville de Nantes,NANTES,23 Rue de Port la Blanche,,,44300,47.2715137262,-1.51726900964
2445,Piscine Baptiste Lefèvre - Couëron,6,SPORT ET LOISIRS,601,Salle et terrain de sport,60112,Piscine,Non renseigné,COUERON,Boulevard Paul Langevin,,,44220,47.2138643745,-1.72039300322
2468,Gymnase Jules Boullery,6,SPORT ET LOISIRS,601,Salle et terrain de sport,60109,Gymnase,Non renseigné,COUERON,Boulevard Francois Blancho,,,44220,47.2145372489,-1.72758810852
2469,Patinoire Olympique Rezé,6,SPORT ET LOISIRS,601,Salle et terrain de sport,60111,Patinoire,Non renseigné,REZE,Rue de la Trocardière,,,44400,47.1823718204,-1.5729261543
2513,Stade de la Haute Gournière,6,SPORT ET LOISIRS,601,Salle et terrain de sport,60115,Stade,Non renseigné,LA-CHAPELLE-SUR-ERDRE,Rue des Besneries,,,44240,47.2680033462,-1.54440194371
2516,Halle des sports Bernard Corneau,6,SPORT ET LOISIRS,601,Salle et terrain de sport,60109,Gymnase,Non renseigné,LA-CHAPELLE-SUR-ERDRE,Boulevard Jacques Demy,,,44240,47.2676571936,-1.55084219271
2546,Salle polyvalente,6,SPORT ET LOISIRS,601,Salle et terrain de sport,60109,Gymnase,Non renseigné,SAINT-AIGNAN-GRANDLIEU,4 Rue des Frères Rousseau,,,44860,47.1237730338,-1.63258915502
2566,Stade de Vertou Centre,6,SPORT ET LOISIRS,601,Salle et terrain de sport,60115,Stade,Non renseigné,VERTOU,Avenue de Morges,,,44120,47.1658084195,-1.47239613442
2576,Centre Sportif Philippe Porcher,6,SPORT ET LOISIRS,601,Salle et terrain de sport,60117,Terrain de grands jeux,Non renseigné,SAINTE-LUCE-SUR-LOIRE,Allée Robert Cheval,,,44980,47.2451678789,-1.46219114573
2608,Base nautique de l'ANCRE - La Grimaudière,6,SPORT ET LOISIRS,601,Salle et terrain de sport,60101,Base nautique,Non renseigné,LA-CHAPELLE-SUR-ERDRE,Chemin Port de la Grimaudière,,,44240,47.2937603818,-1.53707324418
2651,Parc des Sports,6,SPORT ET LOISIRS,601,Salle et terrain de sport,60115,Stade,Public,THOUARE-SUR-LOIRE,2 Avenue du Parc des Sports,,,44470,47.2615705325,-1.45369470889
2658,Gymnase Château Nord,6,SPORT ET LOISIRS,601,Salle et terrain de sport,60109,Gymnase,Non renseigné,REZE,Allée de Provence,,,44400,47.1854249452,-1.55761005993
2687,Complexe Sportif de La Forêt,6,SPORT ET LOISIRS,601,Salle et terrain de sport,60117,Terrain de grands jeux,Public,SAUTRON,Rue de la Forêt,,,44880,47.2659414201,-1.67651649782
3165,Gymnase Sully,6,SPORT ET LOISIRS,601,Salle et terrain de sport,60109,Gymnase,Ville de Nantes,NANTES,9 Rue Henri Cochard,,,44000,47.2231767319,-1.54988608313
3241,Boulodrome Robinière,6,SPORT ET LOISIRS,601,Salle et terrain de sport,60103,Boulodrome,Non renseigné,REZE,Rue des Poyaux,,,44400,47.165152704,-1.53045500038
3307,Terrains de Tennis de la Gagnerie,6,SPORT ET LOISIRS,601,Salle et terrain de sport,60116,Tennis,Public,BOUGUENAIS,Rue de la Gagnerie,,,44340,47.170068655,-1.6188956893
3312,Salle des Mousquetaires,6,SPORT ET LOISIRS,601,Salle et terrain de sport,60116,Tennis,Public,BOUGUENAIS,Chemin de la Neustrie,,,44340,47.1757333233,-1.59276738353
3363,Complexe Sportif de Chantepie,6,SPORT ET LOISIRS,601,Salle et terrain de sport,60109,Gymnase,Public,ST-SEBASTIEN,Rue de Chantepie,,,44230,47.2091640735,-1.4990799527
3387,Gymnase de Mazaire,6,SPORT ET LOISIRS,601,Salle et terrain de sport,60109,Gymnase,Non renseigné,LA-CHAPELLE-SUR-ERDRE,Rue de la Hautière,,,44240,47.2969808408,-1.55836528796
3391,Complexe Sportif de La Coutancière,6,SPORT ET LOISIRS,601,Salle et terrain de sport,60109,Gymnase,Public,LA-CHAPELLE-SUR-ERDRE,Rue de l'Aven,,,44240,47.306280542,-1.55849489399
3392,Complexe Sportif Buisson de La Grolle,6,SPORT ET LOISIRS,601,Salle et terrain de sport,60117,Terrain de grands jeux,Public,LA-CHAPELLE-SUR-ERDRE,Chemin de Kerbihan,,,44240,47.2897153762,-1.53853293085
3634,Piscine Petite Amazonie - Nantes,6,SPORT ET LOISIRS,601,Salle et terrain de sport,60112,Piscine,Ville de Nantes,NANTES,Boulevard de Berlin,,,44000,47.2163926637,-1.53171006586
3660,Skatepark Ricordeau,6,SPORT ET LOISIRS,602,Pratique libre,60202,Skatepark,Ville de Nantes,NANTES,Place Alexis Ricordeau,,,44000,47.2123074426,-1.55351436254
3925,Terrain multi-sports André Chénier,6,SPORT ET LOISIRS,602,Pratique libre,60201,Terrain multi-sports,Ville de Nantes,NANTES,Rue André Chénier,,,44300,47.2533733258,-1.56724591717
3930,UFR STAPS,6,SPORT ET LOISIRS,601,Salle et terrain de sport,60109,Gymnase,Etat,,,,,44300,47.2516895141,-1.55531376695
3932,Terrain multi-sports des Quatre Jeudis,6,SPORT ET LOISIRS,602,Pratique libre,60201,Terrain multi-sports,Ville de Nantes,NANTES,Passage des Tauzins,,,44300,47.2662235401,-1.52053450877
4153,Espace Multisport Crémetterie,6,SPORT ET LOISIRS,601,Salle et terrain de sport,60117,Terrain de grands jeux,Municipal,ST-HERBLAIN,Boulevard Salvador Allende,,,44800,47.2154517845,-1.60905163542
4171,Skatepark - Brains,6,SPORT ET LOISIRS,602,Pratique libre,60202,Skatepark,Municipal,BRAINS,Rond-Point de Bel Air,,,44830,47.1717279722,-1.71740328626
4196,Skatepark - Bouaye,6,SPORT ET LOISIRS,602,Pratique libre,60202,Skatepark,Municipal,BOUAYE,Esplanade de l'Edit de Nantes,,,44830,47.1546780878,-1.68029645004
42,Gymnase Albert Camus,6,SPORT ET LOISIRS,601,Salle et terrain de sport,60109,Gymnase,Ville de Nantes,NANTES,2 Rue du Bois de la Musse,,,44100,47.20357122,-1.61090293371
4239,Skatepark - La Montagne,6,SPORT ET LOISIRS,602,Pratique libre,60202,Skatepark,Municipal,,,,,44620,47.1869975981,-1.6868503413
4249,Salle spécifique de gymnastique,6,SPORT ET LOISIRS,601,Salle et terrain de sport,60109,Gymnase,Non renseigné,VERTOU,Allée de la Vigne de Pâques,,,44120,47.165239069,-1.4671354736
4259,Salle de Pétanque Electra,6,SPORT ET LOISIRS,601,Salle et terrain de sport,60103,Boulodrome,Non renseigné,SAUTRON,Rue de la Forêt,,,44880,47.2658821244,-1.6781119905
4287,Stade René Gaudin,6,SPORT ET LOISIRS,601,Salle et terrain de sport,60115,Stade,Non renseigné,COUERON,Boulevard Francois Blancho,,,44220,47.2124692975,-1.73688202463
4288,Skatepark Romain Douillard - Couëron,6,SPORT ET LOISIRS,602,Pratique libre,60202,Skatepark,Municipal,COUERON,Rue Marcel de la Provoté,,,44220,47.212189123,-1.73831247397
4289,Terrain multi-sports,6,SPORT ET LOISIRS,602,Pratique libre,60201,Terrain multi-sports,Non renseigné,COUERON,Place des Cités,,,44220,47.2140442392,-1.6834647716
4295,Stand de Tir - La Tournière,6,SPORT ET LOISIRS,601,Salle et terrain de sport,60118,Tir,Public,CARQUEFOU,Rue du Stade,,,44470,47.3182432259,-1.47070688369
4307,Gymnase Pré-Gauchet,6,SPORT ET LOISIRS,601,Salle et terrain de sport,60109,Gymnase,Ville de Nantes,,,,,44000,47.217128811,-1.53530394476
4371,Salle de Gymnastique Jacques Canzillon,6,SPORT ET LOISIRS,601,Salle et terrain de sport,60109,Gymnase,Non renseigné,LA-CHAPELLE-SUR-ERDRE,Rue de la Hautière,,,44240,47.2966402739,-1.55853958148
4385,Terrain multisports de la Pierre Blanche,6,SPORT ET LOISIRS,602,Pratique libre,60201,Terrain multi-sports,Public,BOUGUENAIS,Rue du Carrousel,,,44340,47.1667816214,-1.6253652905
44,Gymnase La Halvêque,6,SPORT ET LOISIRS,601,Salle et terrain de sport,60109,Gymnase,Ville de Nantes,NANTES,2 Rue du Moulin de la Halvêque,,,44300,47.2537355402,-1.51723435275
4494,Centre Sportif de la Bourgonnière,6,SPORT ET LOISIRS,601,Salle et terrain de sport,,,Municipal,ST-HERBLAIN,34 Allée de la Bourgonnière,,,44800,47.2072019046,-1.65639621561
4522,Halle de Tennis du Hérault,6,SPORT ET LOISIRS,601,Salle et terrain de sport,60116,Tennis,Municipal,ST-HERBLAIN,Avenue Alain Gerbault,,,44800,47.2355013556,-1.60102341611
4602,Terrain multi-sports Louis Pergaud,6,SPORT ET LOISIRS,602,Pratique libre,60201,Terrain multi-sports,Ville de Nantes,NANTES,Rue Louis Pergaud,,,44300,47.2686413252,-1.518740028
4866,Stade de la Robinière,6,SPORT ET LOISIRS,601,Salle et terrain de sport,60115,Stade,Non renseigné,REZE,Rue des Poyaux,,,44400,47.1646547105,-1.531871218
4876,Aire de jeux de l'Etier,6,SPORT ET LOISIRS,601,Salle et terrain de sport,60117,Terrain de grands jeux,Non renseigné,BOUAYE,Rue du Port,,,44830,47.1348568919,-1.67339597265
4937,Plateau multi-sports Julien Douillard,6,SPORT ET LOISIRS,602,Pratique libre,60201,Terrain multi-sports,Non renseigné,REZE,11 Rue Julien Douillard,,,44400,47.185785093,-1.54273022463
4943,Plateau multi-sports Trentemoult,6,SPORT ET LOISIRS,602,Pratique libre,60201,Terrain multi-sports,Non renseigné,REZE,Place des Filets,,,44400,47.1939810919,-1.58415751528
5012,Gymnase Jean Vincent,6,SPORT ET LOISIRS,601,Salle et terrain de sport,60109,Gymnase,Ville de Nantes,NANTES,Rue Claude et Simone Millot,,,44300,47.2616310171,-1.51486591077
5073,Terrain multi-sports,6,SPORT ET LOISIRS,602,Pratique libre,60201,Terrain multi-sports,Public,INDRE,Rue de l'Allier,,,44610,47.1977404061,-1.66630368859
5074,Multi-sports,6,SPORT ET LOISIRS,602,Pratique libre,60201,Terrain multi-sports,Non renseigné,INDRE,Rue Joseph Tahet,,,44610,47.1962950528,-1.65451054814
5107,Aire de jeux de Provence,6,SPORT ET LOISIRS,601,Salle et terrain de sport,60114,Site de loisirs,Non renseigné,ST-SEBASTIEN,Rue de Provence,,,44230,47.2022375652,-1.48511904314
5112,Terrain de tennis de la Profondine,6,SPORT ET LOISIRS,601,Salle et terrain de sport,60116,Tennis,Non renseigné,ST-SEBASTIEN,Rue des Plantes,,,44230,47.1960055679,-1.48959331701
5130,Stade Roger Mabit,6,SPORT ET LOISIRS,601,Salle et terrain de sport,60115,Stade,Non renseigné,SAUTRON,Rue de la Forêt,,,44880,47.2656300716,-1.67756919344
5137,Aire de jeux Quai de la vallée,6,SPORT ET LOISIRS,601,Salle et terrain de sport,60114,Site de loisirs,Non renseigné,BOUGUENAIS,Quai de la Vallée,,,44340,47.1807684473,-1.62188821035
5148,Aire de jeux de la Clavelière,6,SPORT ET LOISIRS,601,Salle et terrain de sport,60114,Site de loisirs,Non renseigné,SAINT-JEAN-DE-BOISEAU,Impasse de la Clavelière,,,44640,47.1937278473,-1.6973440584
5170,Aire de jeux,6,SPORT ET LOISIRS,601,Salle et terrain de sport,60114,Site de loisirs,Non renseigné,NANTES,Rue René Dumont,,,44300,47.2403252811,-1.5154547574
5196,Aire de jeux,6,SPORT ET LOISIRS,601,Salle et terrain de sport,60114,Site de loisirs,Non renseigné,NANTES,Boulevard Léon Bureau,,,44200,47.2067904656,-1.56674928112
5198,Aire de jeux,6,SPORT ET LOISIRS,601,Salle et terrain de sport,60114,Site de loisirs,Non renseigné,NANTES,Cours Commandant d'Estienne d'Orves,,,44000,47.2142045072,-1.55071503922
5201,Aire de jeux,6,SPORT ET LOISIRS,601,Salle et terrain de sport,60114,Site de loisirs,Non renseigné,NANTES,Rue Stanislas Baudry,,,44000,47.2206554027,-1.54389911286
5209,Aire de jeux,6,SPORT ET LOISIRS,601,Salle et terrain de sport,60114,Site de loisirs,Non renseigné,NANTES,Rue de la Brianderie,,,44100,47.2006571826,-1.58465252349
5221,Aire de jeux,6,SPORT ET LOISIRS,601,Salle et terrain de sport,60114,Site de loisirs,Non renseigné,NANTES,Rue Georges Charrier,,,44100,47.2094422745,-1.6008624993
5228,Aire de jeux,6,SPORT ET LOISIRS,601,Salle et terrain de sport,60114,Site de loisirs,Non renseigné,NANTES,Rue Antoine Watteau,,,44100,47.2231766884,-1.60170360023
5234,Aire de jeux,6,SPORT ET LOISIRS,601,Salle et terrain de sport,60114,Site de loisirs,Non renseigné,NANTES,Rue Noire,,,44000,47.2254708599,-1.56264376193
5255,Aire de jeux,6,SPORT ET LOISIRS,601,Salle et terrain de sport,60114,Site de loisirs,Non renseigné,NANTES,Rue René Guy Cadou,,,44300,47.2562207064,-1.56881638939
5257,Aire de jeux,6,SPORT ET LOISIRS,601,Salle et terrain de sport,60114,Site de loisirs,Non renseigné,NANTES,Rue de Pornichet,,,44300,47.2413283133,-1.54305921931
5266,Aire de jeux,6,SPORT ET LOISIRS,601,Salle et terrain de sport,60114,Site de loisirs,Non renseigné,NANTES,Chemin de la Sécherie,,,44300,47.242243789,-1.5138681953
5275,Aire de jeux,6,SPORT ET LOISIRS,601,Salle et terrain de sport,60114,Site de loisirs,Non renseigné,NANTES,Rue des Grands Pâtis,,,44300,47.2713774504,-1.52279583749
5282,Aire de jeux,6,SPORT ET LOISIRS,601,Salle et terrain de sport,60114,Site de loisirs,Non renseigné,NANTES,Route de la Chapelle Sur Erdre,,,44300,47.2593292854,-1.57422708949
5283,Aire de jeux,6,SPORT ET LOISIRS,601,Salle et terrain de sport,60114,Site de loisirs,Non renseigné,NANTES,Mail de Landivisiau,,,44300,47.2658864773,-1.57990955138
5288,Aire de jeux,6,SPORT ET LOISIRS,601,Salle et terrain de sport,60114,Site de loisirs,Non renseigné,CARQUEFOU,Rue de la Cadranière,,,44470,47.2740751421,-1.49055815466
5301,Aire de jeux,6,SPORT ET LOISIRS,601,Salle et terrain de sport,60114,Site de loisirs,Non renseigné,REZE,Avenue Pierre Loti,,,44400,47.1664356413,-1.55743152714
5305,Aire de jeux,6,SPORT ET LOISIRS,601,Salle et terrain de sport,60114,Site de loisirs,Non renseigné,ST-HERBLAIN,Allée César Franck,,,44800,47.2378305404,-1.60440151292
5306,Aire de jeux,6,SPORT ET LOISIRS,601,Salle et terrain de sport,60114,Site de loisirs,Non renseigné,ST-HERBLAIN,Boulevard du Val de Chézine,,,44800,47.2310800461,-1.59750472925
5317,Aire de jeux,6,SPORT ET LOISIRS,601,Salle et terrain de sport,60114,Site de loisirs,Non renseigné,ST-SEBASTIEN,Allée des Amandiers,,,44230,47.1957980545,-1.48541395111
79,Gymnase V. Hugo,6,SPORT ET LOISIRS,601,Salle et terrain de sport,60109,Gymnase,Ville de Nantes,NANTES,29 Rue Paul Bellamy,,,44000,47.2234440466,-1.5579863469
83,Gymnase Sévigné,6,SPORT ET LOISIRS,601,Salle et terrain de sport,60109,Gymnase,Privé,NANTES,10 Rue Sévigné,,,44000,47.2157271444,-1.56706186658
853,Plaine de Jeux Marrière,6,SPORT ET LOISIRS,601,Salle et terrain de sport,60117,Terrain de grands jeux,Ville de Nantes,NANTES,95 Rue de la Marrière,,,44300,47.2366966926,-1.52871415938
88,Centre Sportif et Culturel La Laëtitia,6,SPORT ET LOISIRS,601,Salle et terrain de sport,60109,Gymnase,Privé,NANTES,49 Rue Chanoine Larose,,,44100,47.231828042,-1.58000232781
119,Base d'Aviron Universitaire,6,SPORT ET LOISIRS,601,Salle et terrain de sport,60101,Base nautique,Etat,NANTES,2 Chemin de la Houssinière,,,44300,47.2365563812,-1.55129581737
1233,Plaine de jeux des Dervallières,6,SPORT ET LOISIRS,601,Salle et terrain de sport,60117,Terrain de grands jeux,Ville de Nantes,NANTES,19 Rue Jean Marc Nattier,,,44100,47.2264093978,-1.5925994228
1353,Stade Mangin Beaulieu,6,SPORT ET LOISIRS,601,Salle et terrain de sport,60115,Stade,Ville de Nantes,NANTES,Rue des Boires,,,44200,47.2050515544,-1.54100882321
1830,Complexe Sportif l'Angevinière,6,SPORT ET LOISIRS,601,Salle et terrain de sport,60115,Stade,Public,ST-HERBLAIN,6 Avenue de l'Angevinière,,,44800,47.2473461777,-1.61021950447
1838,Piscine Ernest Renan - St Herblain,6,SPORT ET LOISIRS,601,Salle et terrain de sport,60112,Piscine,Public,ST-HERBLAIN,1 Rue de Saint Servan,,,44800,47.2154198754,-1.61358067211
1970,Stade de la Bugallière,6,SPORT ET LOISIRS,601,Salle et terrain de sport,60115,Stade,Public,ORVAULT,21 Avenue de la Bugallière,,,44700,47.2600781293,-1.6317261868
2041,Stade de la Profondine,6,SPORT ET LOISIRS,601,Salle et terrain de sport,60115,Stade,Public,ST-SEBASTIEN,Rue des Gripôts,,,44230,47.1947852987,-1.48786169212
2222,Plaine de Jeux La Bergerie,6,SPORT ET LOISIRS,601,Salle et terrain de sport,60117,Terrain de grands jeux,Public,ST-HERBLAIN,Chemin de la Vannerie,,,44800,47.2386942497,-1.63338639277
2453,Complexe Sportif Léo-Lagrange,6,SPORT ET LOISIRS,601,Salle et terrain de sport,60115,Stade,Public,COUERON,Rue de la Noë Allais,,,44220,47.2207410733,-1.68423886932
2466,Gymnase Pierre Moisan,6,SPORT ET LOISIRS,601,Salle et terrain de sport,60109,Gymnase,Non renseigné,COUERON,Rue de la Corbardière,,,44220,47.2163316905,-1.68430937197
2471,Centre Sportif René Gaudin,6,SPORT ET LOISIRS,601,Salle et terrain de sport,,,Non renseigné,COUERON,Rue Marcel de la Provoté,,,44220,47.2122651454,-1.73884757342
2479,Centre Equestre Ferme de la Chauffetière,6,SPORT ET LOISIRS,601,Salle et terrain de sport,60105,Centre équestre,Non renseigné,,,,,44640,47.202733473,-1.78016713712
2564,Hippodrome du Portillon,6,SPORT ET LOISIRS,601,Salle et terrain de sport,60110,Hippodrome,Non renseigné,VERTOU,Allée de l'Hippodrome,,,44120,47.1538072241,-1.47028591313
2648,Gymnase Saint Exupéry,6,SPORT ET LOISIRS,601,Salle et terrain de sport,60109,Gymnase,Non renseigné,LA-MONTAGNE,Rue Albert Camus,,,44620,47.1839561693,-1.68208699873
2652,Stade Philippe Porcher,6,SPORT ET LOISIRS,601,Salle et terrain de sport,60115,Stade,Non renseigné,SAINTE-LUCE-SUR-LOIRE,Allée Robert Cheval,,,44980,47.2458174717,-1.46132232358
2657,Gymnase Cercle Saint Paul,6,SPORT ET LOISIRS,601,Salle et terrain de sport,60109,Gymnase,Non renseigné,REZE,Rue Benoît Chupiet,,,44400,47.1856949492,-1.54762430546
2661,Gymnase du Chêne Creux,6,SPORT ET LOISIRS,601,Salle et terrain de sport,60109,Gymnase,Non renseigné,REZE,Rue des Landes Belleville,,,44400,47.1737926948,-1.54665859504
2664,Gymnase Jean Perrin,6,SPORT ET LOISIRS,601,Salle et terrain de sport,60109,Gymnase,Non renseigné,REZE,Allée de la Moine,,,44400,47.1832770048,-1.56021695184
3313,Plateau d'évolution de la Neustrie,6,SPORT ET LOISIRS,602,Pratique libre,60201,Terrain multi-sports,Public,BOUGUENAIS,Chemin de la Neustrie,,,44340,47.1753910168,-1.5911284543
3331,Terrain de pétanque du Parc de la Sèvre,6,SPORT ET LOISIRS,601,Salle et terrain de sport,60103,Boulodrome,Non renseigné,VERTOU,Boulevard Guichet Sérex,,,44120,47.1658301997,-1.47981292194
3362,Tennis de l'Ouche Catin,6,SPORT ET LOISIRS,601,Salle et terrain de sport,60116,Tennis,Public,ST-SEBASTIEN,Rue de l'Ouche Catin,,,44230,47.192573759,-1.50199449064
3379,Salle de Tennis,6,SPORT ET LOISIRS,601,Salle et terrain de sport,60116,Tennis,Public,BASSE-GOULAINE,Rue du Général Leclerc,,,44115,47.2174956023,-1.46414835129
3423,Boulodrome Indre,6,SPORT ET LOISIRS,601,Salle et terrain de sport,60103,Boulodrome,Non renseigné,INDRE,Quai Victor Boquien,,,44610,47.1973163163,-1.67199391352
3435,Centre Sportif Stévin,6,SPORT ET LOISIRS,601,Salle et terrain de sport,,,Non renseigné,ORVAULT,10 Rue Stevin,,,44700,47.259450803,-1.63451044148
3683,Boulodrome Noë Lambert,6,SPORT ET LOISIRS,601,Salle et terrain de sport,60103,Boulodrome,Ville de Nantes,NANTES,20 Rue de la Haute Mitrie,,,44300,47.2309716833,-1.52528829059
3898,Terrain multi-sports des Martyrs Irlandais,6,SPORT ET LOISIRS,602,Pratique libre,60201,Terrain multi-sports,Ville de Nantes,NANTES,Rue de l'Adour,,,44100,47.2077181436,-1.6104837718
3917,Terrain multi-sports Sébilleau,6,SPORT ET LOISIRS,602,Pratique libre,60201,Terrain multi-sports,Ville de Nantes,NANTES,Rue Docteur Jules Sébilleau,,,44200,47.2052549531,-1.53163552086
3935,Terrain multi-sports Ecole du Linot,6,SPORT ET LOISIRS,602,Pratique libre,60201,Terrain multi-sports,Ville de Nantes,NANTES,43B Rue du Port des Charrettes,,,44300,47.2682287245,-1.52855517085
4179,Aire multisports,6,SPORT ET LOISIRS,601,Salle et terrain de sport,60117,Terrain de grands jeux,Non renseigné,LES-SORINIERES,Rue de la Maillardière,,,44840,47.1574985345,-1.52301320548
4215,Salle de sport de la Belle Etoile,6,SPORT ET LOISIRS,601,Salle et terrain de sport,60109,Gymnase,Public,THOUARE-SUR-LOIRE,Avenue du Parc des Sports,,,44470,47.2609322827,-1.45322268694
4217,Salle Omnisport,6,SPORT ET LOISIRS,601,Salle et terrain de sport,60109,Gymnase,Public,THOUARE-SUR-LOIRE,Voie Non Dénommée 2041149,,,44470,47.2631952891,-1.45608305657
4226,Skatepark - Basse-Goulaine,6,SPORT ET LOISIRS,602,Pratique libre,60202,Skatepark,Public,BASSE-GOULAINE,Square de Theley,,,44115,47.2178756596,-1.4657354349
4233,Tir à l'Arc,6,SPORT ET LOISIRS,601,Salle et terrain de sport,60118,Tir,Non renseigné,SAINT-JEAN-DE-BOISEAU,Chemin de la Coulée,,,44640,47.1862942731,-1.70998018058
4252,Terrain de Pétanque des Reigners,6,SPORT ET LOISIRS,601,Salle et terrain de sport,60103,Boulodrome,Non renseigné,VERTOU,Rue des Reigniers,,,44120,47.1376168976,-1.46445035717
4253,Skatepark - Vertou,6,SPORT ET LOISIRS,602,Pratique libre,60202,Skatepark,Municipal,VERTOU,Rue des Reigniers,,,44120,47.1377400187,-1.4650612328
4260,Salle de Tennis Cassiopée,6,SPORT ET LOISIRS,601,Salle et terrain de sport,60116,Tennis,Non renseigné,SAUTRON,Rue de la Forêt,,,44880,47.2666474813,-1.67923508705
4292,Piste de bicross,6,SPORT ET LOISIRS,601,Salle et terrain de sport,60102,Bicross,Public,CARQUEFOU,Rue Victor Hugo,,,44470,47.2814486511,-1.48138211507
4297,Sport Nautique de l'Ouest,6,SPORT ET LOISIRS,601,Salle et terrain de sport,60101,Base nautique,Privé,CARQUEFOU,17 Chemin de Port Breton,,,44470,47.3014057422,-1.52641525537
4354,Skatepark - La Chapelle-sur-Erdre,6,SPORT ET LOISIRS,602,Pratique libre,60202,Skatepark,Municipal,LA-CHAPELLE-SUR-ERDRE,Avenue de Beauregard,,,44240,47.2960789947,-1.55578639329
4361,Plateau sportif Gesvres,6,SPORT ET LOISIRS,601,Salle et terrain de sport,60115,Stade,Non renseigné,LA-CHAPELLE-SUR-ERDRE,Boulevard du Gesvres,,,44240,47.2668362404,-1.551021204
4778,Terrains de Tennis,6,SPORT ET LOISIRS,601,Salle et terrain de sport,60116,Tennis,Non renseigné,LA-MONTAGNE,Allée du Château d'Aux,,,44620,47.1829183348,-1.67626249085
4784,Plateau sportif de la Pelousière,6,SPORT ET LOISIRS,602,Pratique libre,60201,Terrain multi-sports,Non renseigné,ST-HERBLAIN,Rue du Docteur Alfred Corlay,,,44800,47.2075452012,-1.64630376428
48,Gymnase Chantenaysienne,6,SPORT ET LOISIRS,601,Salle et terrain de sport,60109,Gymnase,Ville de Nantes,,,,,44100,47.2069254464,-1.59051124165
4867,Plateau multi-sports Château-Nord,6,SPORT ET LOISIRS,602,Pratique libre,60201,Terrain multi-sports,Non renseigné,REZE,Allée de Provence,,,44400,47.1853567944,-1.55836847557
4872,Piste de bicross,6,SPORT ET LOISIRS,601,Salle et terrain de sport,60102,Bicross,Non renseigné,LA-MONTAGNE,Rue de la Gaudinière,,,44620,47.1835328578,-1.67779215612
4904,Dojo Jean-Claude Le Quintrec,6,SPORT ET LOISIRS,601,Salle et terrain de sport,60106,Combats ? Arts martiaux,Non renseigné,COUERON,Boulevard Paul Langevin,,,44220,47.213669829,-1.72145170328
4908,Terrain multi-sports,6,SPORT ET LOISIRS,602,Pratique libre,60201,Terrain multi-sports,Non renseigné,,,,,44400,47.1804528281,-1.57055700271
4939,Plateau multi-sports Roger Salengro,6,SPORT ET LOISIRS,602,Pratique libre,60201,Terrain multi-sports,Non renseigné,REZE,Rue Alexandre Huchon,,,44400,47.1840229056,-1.54886931148
4940,Plateau multi-sports Chêne-Creux,6,SPORT ET LOISIRS,602,Pratique libre,60201,Terrain multi-sports,Non renseigné,REZE,Rue Jean-Baptiste et Henri Tendron,,,44400,47.1736333536,-1.54639171532
4953,Aire de jeux parc de la Sèvre,6,SPORT ET LOISIRS,601,Salle et terrain de sport,60114,Site de loisirs,Non renseigné,VERTOU,Boulevard Guichet Sérex,,,44120,47.1663144969,-1.48027174807
5011,Plaine de Jeux Jean Jahan,6,SPORT ET LOISIRS,601,Salle et terrain de sport,60117,Terrain de grands jeux,Ville de Nantes,NANTES,507 Route de Saint Joseph,,,44300,47.271947572,-1.51779465883
5018,Skatepark des Dervallières,6,SPORT ET LOISIRS,602,Pratique libre,60202,Skatepark,Ville de Nantes,NANTES,Rue des Dervallières,,,44100,47.221063954,-1.57848327218
5042,Gymnases Nelson Mandela,6,SPORT ET LOISIRS,601,Salle et terrain de sport,60109,Gymnase,Région,NANTES,2 Boulevard Alexandre Millerand,,,44200,47.2088592667,-1.53173461999
5077,Piste d'athlétisme,6,SPORT ET LOISIRS,601,Salle et terrain de sport,60115,Stade,Public,COUERON,Boulevard Paul Langevin,,,44220,47.2143570697,-1.72005596102
5106,Aire de jeux de l'Acadie,6,SPORT ET LOISIRS,601,Salle et terrain de sport,60114,Site de loisirs,Non renseigné,ST-SEBASTIEN,Rue de l'Acadie,,,44230,47.1978937437,-1.49071458969
5140,Aire de Jeux Pierre Blanche,6,SPORT ET LOISIRS,601,Salle et terrain de sport,60114,Site de loisirs,Non renseigné,BOUGUENAIS,Rue de la Pierre Blanche,,,44340,47.1701506043,-1.62705440633
5160,Aire de jeux,6,SPORT ET LOISIRS,601,Salle et terrain de sport,60114,Site de loisirs,Non renseigné,NANTES,Rue Jean François Champollion,,,44300,47.2409967512,-1.52190617518
5163,Aire de jeux,6,SPORT ET LOISIRS,601,Salle et terrain de sport,60114,Site de loisirs,Non renseigné,NANTES,Rue Max Planck,,,44300,47.2377584006,-1.52111043407
5164,Aire de jeux,6,SPORT ET LOISIRS,601,Salle et terrain de sport,60114,Site de loisirs,Non renseigné,NANTES,Rue Alfred Nobel,,,44300,47.2370310215,-1.51974006358
5166,Aire de jeux,6,SPORT ET LOISIRS,601,Salle et terrain de sport,60114,Site de loisirs,Non renseigné,NANTES,Rue du Croissant,,,44300,47.2352569855,-1.52358154554
5175,Aire de jeux,6,SPORT ET LOISIRS,601,Salle et terrain de sport,60114,Site de loisirs,Non renseigné,NANTES,Rue Francisco Ferrer,,,44000,47.2214598723,-1.53314973064
5177,Aire de jeux,6,SPORT ET LOISIRS,601,Salle et terrain de sport,60114,Site de loisirs,Non renseigné,NANTES,Rue de la Révolution des Oeillets,,,44000,47.2180086807,-1.51780522965
5200,Aire de jeux,6,SPORT ET LOISIRS,601,Salle et terrain de sport,60114,Site de loisirs,Non renseigné,NANTES,Passage Berthault,,,44000,47.2122131305,-1.54849169936
5205,Aire de jeux,6,SPORT ET LOISIRS,601,Salle et terrain de sport,60114,Site de loisirs,Non renseigné,NANTES,Rue Faustin Hélie,,,44000,47.2182479886,-1.56333649612
5211,Aire de jeux,6,SPORT ET LOISIRS,601,Salle et terrain de sport,60114,Site de loisirs,Non renseigné,NANTES,Rue de la Convention,,,44100,47.2102816352,-1.59048241723
5223,Aire de jeux,6,SPORT ET LOISIRS,601,Salle et terrain de sport,60114,Site de loisirs,Non renseigné,NANTES,Rue du Prinquiau,,,44100,47.2123317005,-1.58685178163
5238,Aire de jeux,6,SPORT ET LOISIRS,601,Salle et terrain de sport,60114,Site de loisirs,Non renseigné,NANTES,Rue des Primevères,,,44100,47.2280908479,-1.58549349231
5241,Aire de jeux,6,SPORT ET LOISIRS,601,Salle et terrain de sport,60114,Site de loisirs,Non renseigné,NANTES,Rue du Breil,,,44100,47.229536675,-1.58494970753
5244,Aire de jeux,6,SPORT ET LOISIRS,601,Salle et terrain de sport,60114,Site de loisirs,Non renseigné,ORVAULT,Avenue de la Patouillerie,,,44700,47.2458807027,-1.57955057417
5248,Aire de jeux,6,SPORT ET LOISIRS,601,Salle et terrain de sport,60114,Site de loisirs,Non renseigné,NANTES,Avenue José Maria de Hérédia,,,44300,47.2458857662,-1.57487620074
5252,Aire de jeux,6,SPORT ET LOISIRS,601,Salle et terrain de sport,60114,Site de loisirs,Non renseigné,NANTES,Route de la Chapelle Sur Erdre,,,44300,47.2570824224,-1.57634195619
5254,Aire de jeux,6,SPORT ET LOISIRS,601,Salle et terrain de sport,60114,Site de loisirs,Non renseigné,NANTES,Rue de Winnipeg,,,44300,47.2595970721,-1.57771072603
5269,Aire de jeux,6,SPORT ET LOISIRS,601,Salle et terrain de sport,60114,Site de loisirs,Non renseigné,NANTES,Allée Edouard et Raymond Hervé,,,44300,47.262492543,-1.51461599425
5291,Aire de jeux,6,SPORT ET LOISIRS,601,Salle et terrain de sport,60114,Site de loisirs,Non renseigné,ORVAULT,Rue Alphonse Laveran,,,44700,47.2483464546,-1.59403253172
5295,Aire de jeux,6,SPORT ET LOISIRS,601,Salle et terrain de sport,60114,Site de loisirs,Non renseigné,REZE,Rue Raphaël Lancelot,,,44400,47.1928100815,-1.58584080377
5303,Aire de jeux des Mahaudières,6,SPORT ET LOISIRS,601,Salle et terrain de sport,60114,Site de loisirs,Non renseigné,REZE,Avenue Alexandre Plancher,,,44400,47.1880670784,-1.56111381062
5312,Aire de jeux du Jardin de Pontpierre,6,SPORT ET LOISIRS,601,Salle et terrain de sport,60114,Site de loisirs,Non renseigné,ST-HERBLAIN,Rue du Souvenir Français,,,44800,47.2115893393,-1.6363677663
694,Plaine de jeux La Halvêque,6,SPORT ET LOISIRS,601,Salle et terrain de sport,60117,Terrain de grands jeux,Ville de Nantes,NANTES,23 Rue Léon Serpollet,,,44300,47.2538634551,-1.51861362165
703,Plateau Sportif du Port Boyer,6,SPORT ET LOISIRS,601,Salle et terrain de sport,60117,Terrain de grands jeux,Ville de Nantes,NANTES,73 Rue du Port Boyer,,,44300,47.2396673828,-1.53833145058
85,Gymnase Gaston Serpette,6,SPORT ET LOISIRS,601,Salle et terrain de sport,60109,Gymnase,Ville de Nantes,NANTES,51 Boulevard Gaston Serpette,,,44000,47.2272303201,-1.57598247463
850,Plaine de Jeux l'Eraudière,6,SPORT ET LOISIRS,601,Salle et terrain de sport,60117,Terrain de grands jeux,Ville de Nantes,,,,,44300,47.2479389859,-1.5353443556
856,Plaine de jeux Gaston Turpin,6,SPORT ET LOISIRS,601,Salle et terrain de sport,60117,Terrain de grands jeux,Ville de Nantes,,,,,44000,47.2243971833,-1.54071563342
86,Gymnase du Breil Malville,6,SPORT ET LOISIRS,601,Salle et terrain de sport,60109,Gymnase,Ville de Nantes,,,,,44100,47.2291425671,-1.58358466569
1073,Patinoire Olympique du Petit Port,6,SPORT ET LOISIRS,601,Salle et terrain de sport,60111,Patinoire,Ville de Nantes,NANTES,Boulevard du Petit Port,,,44300,47.2427861001,-1.55555104021
110,Piscine Petit Port - Nantes,6,SPORT ET LOISIRS,601,Salle et terrain de sport,60112,Piscine,Ville de Nantes,NANTES,Boulevard du Petit Port,,,44300,47.2428434212,-1.55446090454
1240,Gymnase RACC,6,SPORT ET LOISIRS,601,Salle et terrain de sport,60109,Gymnase,Privé,NANTES,11 Rue de la Rivière,,,44300,47.2319442064,-1.50037476254
1503,Base Nautique Port Durand S.N.S.M.,6,SPORT ET LOISIRS,601,Salle et terrain de sport,60101,Base nautique,Privé,,,,,44300,47.2525033776,-1.53821897115
1559,Gymnase Amicale Don Bosco,6,SPORT ET LOISIRS,601,Salle et terrain de sport,60109,Gymnase,Privé,NANTES,Chemin de Bonneville,,,44300,47.2460838312,-1.53648615358
1836,Gymnase Bernardière,6,SPORT ET LOISIRS,601,Salle et terrain de sport,60109,Gymnase,Public,ST-HERBLAIN,Rue de Dijon,,,44800,47.2063233655,-1.61601638649
1840,Gymnase Sensive,6,SPORT ET LOISIRS,601,Salle et terrain de sport,60109,Gymnase,Public,ST-HERBLAIN,21 Rue de Bordeaux,,,44800,47.2106536621,-1.61225062717
1847,Gymnase Changetterie,6,SPORT ET LOISIRS,601,Salle et terrain de sport,60109,Gymnase,Public,ST-HERBLAIN,15B Rue Théophile Guillou,,,44800,47.2151682761,-1.65111526712
2159,Circuits Rustiques d'Activites en Plein Air de l'Ile Forget,6,SPORT ET LOISIRS,602,Pratique libre,60203,Parcours sportif,Public,ST-SEBASTIEN,Boulevard des Pas Enchantés,,,44230,47.2112280752,-1.51241129341
2201,Salle du Fougan-de-Mer,6,SPORT ET LOISIRS,601,Salle et terrain de sport,60109,Gymnase,Public,BOUGUENAIS,Rue du Commandant Charcot,,,44340,47.1832239738,-1.578978006
2339,Parc d'Attractions des Naudières,6,SPORT ET LOISIRS,601,Salle et terrain de sport,60114,Site de loisirs,Non renseigné,SAUTRON,1 Route des Naudières,,,44880,47.2685404277,-1.69789919601
2411,Stade Julien Micheau,6,SPORT ET LOISIRS,601,Salle et terrain de sport,60115,Stade,Non renseigné,BRAINS,Rue du Bois Joli,,,44830,47.172820251,-1.72552541317
2426,Club nautique de Port Jean,6,SPORT ET LOISIRS,601,Salle et terrain de sport,60101,Base nautique,Public,CARQUEFOU,Route de Port Jean,,,44470,47.3031531078,-1.52400721759
2443,Stade Donatien et Suzanne Hauray,6,SPORT ET LOISIRS,601,Salle et terrain de sport,60115,Stade,Non renseigné,COUERON,Rue de la Frémondière,,,44220,47.2120419377,-1.7194611773
2465,Golf de l'Epinay,6,SPORT ET LOISIRS,601,Salle et terrain de sport,60108,Golf,Privé,CARQUEFOU,Boulevard de l'Epinay,,,44470,47.2877803421,-1.48894816245
2493,Stade Municipal Le Pellerin,6,SPORT ET LOISIRS,601,Salle et terrain de sport,60115,Stade,Non renseigné,LE-PELLERIN,Rue de la Jouardais,,,44640,47.1961777306,-1.76061424074
2514,Stade de rugby Robert Mesnard,6,SPORT ET LOISIRS,601,Salle et terrain de sport,60115,Stade,Non renseigné,LA-CHAPELLE-SUR-ERDRE,Rue de Beausoleil,,,44240,47.3036283751,-1.55960525968
2534,Complexe Sportif Les Genêts,6,SPORT ET LOISIRS,601,Salle et terrain de sport,60109,Gymnase,Non renseigné,SAINT-JEAN-DE-BOISEAU,Rue Pierre Mendès France,,,44640,47.1920821704,-1.72513264985
2562,Gymnase Marc Jaffret,6,SPORT ET LOISIRS,601,Salle et terrain de sport,60109,Gymnase,Non renseigné,,,,,44980,47.2489007478,-1.48292959478
2573,Stade Loreau,6,SPORT ET LOISIRS,601,Salle et terrain de sport,60115,Stade,Privé,VERTOU,Route du Drouillet,,,44120,47.1591236341,-1.48558414703
2574,Gymnase Eric Tabarly,6,SPORT ET LOISIRS,601,Salle et terrain de sport,60109,Gymnase,Non renseigné,SAINTE-LUCE-SUR-LOIRE,53 Boulevard Louis Pasteur,,,44980,47.2585382485,-1.49047871293
2596,Complexe Sportif du Patisseau,6,SPORT ET LOISIRS,601,Salle et terrain de sport,60109,Gymnase,Non renseigné,SAINTE-LUCE-SUR-LOIRE,31 Rue du Patisseau,,,44980,47.2453944636,-1.47940133223
2613,Centre Equestre de la Gascherie,6,SPORT ET LOISIRS,601,Salle et terrain de sport,60105,Centre équestre,Non renseigné,LA-CHAPELLE-SUR-ERDRE,Rue de l'Erdre,,,44240,47.2972906508,-1.53828370446
2643,Gymnase de Goulaine,6,SPORT ET LOISIRS,601,Salle et terrain de sport,60109,Gymnase,Public,BASSE-GOULAINE,Rue du Général Leclerc,,,44115,47.2179367342,-1.4639488791
2647,Stade de Rugby des Rouleaux,6,SPORT ET LOISIRS,601,Salle et terrain de sport,60115,Stade,Public,BASSE-GOULAINE,Rue Simone De Beauvoir,,,44115,47.2028562347,-1.46796962676
2649,Complexe ancien stade Les Sorinières,6,SPORT ET LOISIRS,601,Salle et terrain de sport,60117,Terrain de grands jeux,Non renseigné,,,,,44840,47.1460980878,-1.52204844557
2650,Club de musculation,6,SPORT ET LOISIRS,601,Salle et terrain de sport,60109,Gymnase,Non renseigné,LE-PELLERIN,Voie Non Dénommée 1201796,,,44640,47.2069828301,-1.79331782962
2655,Piscine municipale Victor-Jara - Rezé,6,SPORT ET LOISIRS,601,Salle et terrain de sport,60112,Piscine,Non renseigné,REZE,Avenue Léon Blum,,,44400,47.183020586,-1.56875729154
2669,Gymnase Jean-Pierre Morel,6,SPORT ET LOISIRS,601,Salle et terrain de sport,60109,Gymnase,Non renseigné,VERTOU,Allée de la Vigne de Pâques,,,44120,47.1649147441,-1.46711917665
2674,Stade Raymond Durand,6,SPORT ET LOISIRS,601,Salle et terrain de sport,60115,Stade,Non renseigné,VERTOU,Impasse du Stade Raymond Durand,,,44120,47.1828465548,-1.49911961286
3290,Espace Sport Canin Bouguenais,6,SPORT ET LOISIRS,601,Salle et terrain de sport,,,Public,BOUGUENAIS,Rue des Drouards,,,44340,47.1602373865,-1.56997069053
3305,Salle des Bélians,6,SPORT ET LOISIRS,601,Salle et terrain de sport,60109,Gymnase,Public,BOUGUENAIS,Chemin des Bélians,,,44340,47.1729765484,-1.60547145933
3311,Gymnase de la Neustrie,6,SPORT ET LOISIRS,601,Salle et terrain de sport,60109,Gymnase,Public,BOUGUENAIS,Chemin de la Neustrie,,,44340,47.1758823208,-1.59219907415
3361,Piste de Bi-cross Ile Forget,6,SPORT ET LOISIRS,601,Salle et terrain de sport,60102,Bicross,Public,ST-SEBASTIEN,Boulevard des Pas Enchantés,,,44230,47.2093886576,-1.51694762586
3381,Gymnase La Herdrie,6,SPORT ET LOISIRS,601,Salle et terrain de sport,60109,Gymnase,Public,BASSE-GOULAINE,81 Rue de la Basse Lande,,,44115,47.1981369983,-1.45211641643
34,Gymnase Raphaël Lebel,6,SPORT ET LOISIRS,601,Salle et terrain de sport,60109,Gymnase,Ville de Nantes,NANTES,16 Boulevard Auguste Péneau,,,44300,47.2282590706,-1.51222501905
3412,Salle Léo Lagrange,6,SPORT ET LOISIRS,601,Salle et terrain de sport,60109,Gymnase,Non renseigné,COUERON,Rue de la Noë Allais,,,44220,47.2195633828,-1.68346553197
3414,Gymnase Paul Langevin,6,SPORT ET LOISIRS,601,Salle et terrain de sport,60109,Gymnase,Non renseigné,COUERON,Boulevard Paul Langevin,,,44220,47.2140301457,-1.72127239634
3417,Piste Bicross Couëron,6,SPORT ET LOISIRS,601,Salle et terrain de sport,60102,Bicross,Non renseigné,COUERON,Rue du Pont de Retz,,,44220,47.2123101854,-1.70294117981
3501,Complexe de loisirs Louis Barta,6,SPORT ET LOISIRS,601,Salle et terrain de sport,60117,Terrain de grands jeux,Non renseigné,LES-SORINIERES,Rue de la Guindonnière,,,44840,47.1487382958,-1.51850629139
3529,Motocross Christian Bageot,6,SPORT ET LOISIRS,601,Salle et terrain de sport,,,Non renseigné,ST-HERBLAIN,Route Plessis Bouchet,,,44800,47.1980987653,-1.64003405071
3578,Salle de Tennis de Table du Haut Vigneau,6,SPORT ET LOISIRS,601,Salle et terrain de sport,60109,Gymnase,Non renseigné,LES-SORINIERES,61 Rue de la Maillardière,,,44840,47.1596886294,-1.52154018627
3662,Terrain multi-sports Monteil,6,SPORT ET LOISIRS,602,Pratique libre,60201,Terrain multi-sports,Ville de Nantes,,,,,44000,47.2132011014,-1.54869427991
3798,Centre Equestre La Gourmette,6,SPORT ET LOISIRS,601,Salle et terrain de sport,60105,Centre équestre,Non renseigné,SAUTRON,VM 81,,,44880,47.2775056937,-1.71206542614
3897,Skatepark des Courtils,6,SPORT ET LOISIRS,602,Pratique libre,60202,Skatepark,Ville de Nantes,NANTES,Rue des Courtils,,,44100,47.2006448293,-1.5926649877
3905,Stade Raymond Baumard - Centre Hebertiste,6,SPORT ET LOISIRS,601,Salle et terrain de sport,60115,Stade,Privé,NANTES,Rue des Bosquets,,,44100,47.2213069306,-1.58227742758
